{
"type": "FeatureCollection",
"name": "G10_Points_Services_Financiers_OSM_Haiti",
"crs": { "type": "name", "properties": { "name": "urn:ogc:def:crs:OGC:1.3:CRS84" } },
"features": [
{ "type": "Feature", "properties": { "osm_id": 615050968, "osm_type": "node", "type_service": "Banque commerciale", "name": "inconnu", "operator": "Banque Nationale de Crédit", "network": "N/R", "latitude": 19.758745, "longitude": -72.1996027, "adm2_name": "Cap-Haitien", "adm2_pcode": "HT0311", "adm1_name": "Nord", "addr_city": "", "addr_street": "", "phone": "", "opening_hours": "Mo-Sa 08:00-18:00", "website": "" }, "geometry": { "type": "Point", "coordinates": [ -72.1996027, 19.758745 ] } },
{ "type": "Feature", "properties": { "osm_id": 616073726, "osm_type": "node", "type_service": "IMF", "name": "Inter-American Cooperative Food Production Service", "operator": "N/R", "network": "N/R", "latitude": 18.1924051, "longitude": -73.7519323, "adm2_name": "Les Cayes", "adm2_pcode": "HT0711", "adm1_name": "Sud", "addr_city": "", "addr_street": "", "phone": "", "opening_hours": "", "website": "" }, "geometry": { "type": "Point", "coordinates": [ -73.7519323, 18.1924051 ] } },
{ "type": "Feature", "properties": { "osm_id": 616838862, "osm_type": "node", "type_service": "Maison de transfert", "name": "Western Union", "operator": "N/R", "network": "N/R", "latitude": 18.5086148, "longitude": -72.6294795, "adm2_name": "Leogane", "adm2_pcode": "HT0121", "adm1_name": "Ouest", "addr_city": "", "addr_street": "", "phone": "", "opening_hours": "", "website": "" }, "geometry": { "type": "Point", "coordinates": [ -72.6294795, 18.5086148 ] } },
{ "type": "Feature", "properties": { "osm_id": 618278468, "osm_type": "node", "type_service": "Maison de transfert", "name": "Western Union", "operator": "N/R", "network": "N/R", "latitude": 18.4280089, "longitude": -72.8601777, "adm2_name": "Petit-Goave", "adm2_pcode": "HT0122", "adm1_name": "Ouest", "addr_city": "", "addr_street": "", "phone": "", "opening_hours": "", "website": "" }, "geometry": { "type": "Point", "coordinates": [ -72.8601777, 18.4280089 ] } },
{ "type": "Feature", "properties": { "osm_id": 618291030, "osm_type": "node", "type_service": "Banque commerciale", "name": "Soge Bank", "operator": "N/R", "network": "N/R", "latitude": 18.431317, "longitude": -72.8673767, "adm2_name": "Petit-Goave", "adm2_pcode": "HT0122", "adm1_name": "Ouest", "addr_city": "", "addr_street": "", "phone": "", "opening_hours": "", "website": "" }, "geometry": { "type": "Point", "coordinates": [ -72.8673767, 18.431317 ] } },
{ "type": "Feature", "properties": { "osm_id": 618291421, "osm_type": "node", "type_service": "Banque commerciale", "name": "Banque Nationale", "operator": "N/R", "network": "N/R", "latitude": 18.4301159, "longitude": -72.868809, "adm2_name": "Petit-Goave", "adm2_pcode": "HT0122", "adm1_name": "Ouest", "addr_city": "", "addr_street": "", "phone": "", "opening_hours": "", "website": "" }, "geometry": { "type": "Point", "coordinates": [ -72.868809, 18.4301159 ] } },
{ "type": "Feature", "properties": { "osm_id": 618291791, "osm_type": "node", "type_service": "Banque commerciale", "name": "Soge Bank", "operator": "N/R", "network": "N/R", "latitude": 18.4305332, "longitude": -72.868809, "adm2_name": "Petit-Goave", "adm2_pcode": "HT0122", "adm1_name": "Ouest", "addr_city": "", "addr_street": "", "phone": "", "opening_hours": "", "website": "" }, "geometry": { "type": "Point", "coordinates": [ -72.868809, 18.4305332 ] } },
{ "type": "Feature", "properties": { "osm_id": 618292220, "osm_type": "node", "type_service": "Banque commerciale", "name": "UNIBANK", "operator": "N/R", "network": "N/R", "latitude": 18.4300039, "longitude": -72.8683745, "adm2_name": "Petit-Goave", "adm2_pcode": "HT0122", "adm1_name": "Ouest", "addr_city": "", "addr_street": "", "phone": "", "opening_hours": "", "website": "" }, "geometry": { "type": "Point", "coordinates": [ -72.8683745, 18.4300039 ] } },
{ "type": "Feature", "properties": { "osm_id": 619570381, "osm_type": "node", "type_service": "Banque commerciale", "name": "N/R", "operator": "Sogebank", "network": "N/R", "latitude": 18.194952, "longitude": -73.7480057, "adm2_name": "Les Cayes", "adm2_pcode": "HT0711", "adm1_name": "Sud", "addr_city": "", "addr_street": "", "phone": "", "opening_hours": "", "website": "" }, "geometry": { "type": "Point", "coordinates": [ -73.7480057, 18.194952 ] } },
{ "type": "Feature", "properties": { "osm_id": 912323356, "osm_type": "node", "type_service": "Banque commerciale", "name": "N/R", "operator": "N/R", "network": "N/R", "latitude": 18.5391098, "longitude": -72.3020514, "adm2_name": "Port-au-Prince", "adm2_pcode": "HT0111", "adm1_name": "Ouest", "addr_city": "", "addr_street": "", "phone": "", "opening_hours": "", "website": "" }, "geometry": { "type": "Point", "coordinates": [ -72.3020514, 18.5391098 ] } },
{ "type": "Feature", "properties": { "osm_id": 956849914, "osm_type": "node", "type_service": "Banque commerciale", "name": "Sogebank Succursale de Freres", "operator": "Sogebank S.A.", "network": "N/R", "latitude": 18.5270031, "longitude": -72.2768858, "adm2_name": "Petion-Ville", "adm2_pcode": "HT0114", "adm1_name": "Ouest", "addr_city": "", "addr_street": "Route de Frères (Delmas 105)", "phone": "", "opening_hours": "", "website": "" }, "geometry": { "type": "Point", "coordinates": [ -72.2768858, 18.5270031 ] } },
{ "type": "Feature", "properties": { "osm_id": 956852342, "osm_type": "node", "type_service": "Maison de transfert", "name": "N/R", "operator": "Western Union;Sogexpress", "network": "N/R", "latitude": 18.5260392, "longitude": -72.2658325, "adm2_name": "Petion-Ville", "adm2_pcode": "HT0114", "adm1_name": "Ouest", "addr_city": "", "addr_street": "", "phone": "", "opening_hours": "", "website": "" }, "geometry": { "type": "Point", "coordinates": [ -72.2658325, 18.5260392 ] } },
{ "type": "Feature", "properties": { "osm_id": 970302759, "osm_type": "node", "type_service": "Banque commerciale", "name": "Sogebank", "operator": "N/R", "network": "N/R", "latitude": 18.5125408, "longitude": -72.2880524, "adm2_name": "Petion-Ville", "adm2_pcode": "HT0114", "adm1_name": "Ouest", "addr_city": "", "addr_street": "Rue Louverture", "phone": "", "opening_hours": "", "website": "" }, "geometry": { "type": "Point", "coordinates": [ -72.2880524, 18.5125408 ] } },
{ "type": "Feature", "properties": { "osm_id": 970302763, "osm_type": "node", "type_service": "Banque commerciale", "name": "N/R", "operator": "sogebank", "network": "N/R", "latitude": 18.512604, "longitude": -72.2880063, "adm2_name": "Petion-Ville", "adm2_pcode": "HT0114", "adm1_name": "Ouest", "addr_city": "", "addr_street": "Rue Louverture", "phone": "", "opening_hours": "", "website": "" }, "geometry": { "type": "Point", "coordinates": [ -72.2880063, 18.512604 ] } },
{ "type": "Feature", "properties": { "osm_id": 986198607, "osm_type": "node", "type_service": "Banque commerciale", "name": "Socolavim", "operator": "N/R", "network": "N/R", "latitude": 18.9505788, "longitude": -72.7066365, "adm2_name": "Saint-Marc", "adm2_pcode": "HT0531", "adm1_name": "Artibonite", "addr_city": "", "addr_street": "", "phone": "", "opening_hours": "", "website": "" }, "geometry": { "type": "Point", "coordinates": [ -72.7066365, 18.9505788 ] } },
{ "type": "Feature", "properties": { "osm_id": 1077369690, "osm_type": "node", "type_service": "Bureau de change", "name": "CAM transfer", "operator": "N/R", "network": "N/R", "latitude": 18.2347356, "longitude": -72.535151, "adm2_name": "Jacmel", "adm2_pcode": "HT0211", "adm1_name": "Sud-Est", "addr_city": "", "addr_street": "", "phone": "", "opening_hours": "", "website": "" }, "geometry": { "type": "Point", "coordinates": [ -72.535151, 18.2347356 ] } },
{ "type": "Feature", "properties": { "osm_id": 1080579041, "osm_type": "node", "type_service": "Banque commerciale", "name": "UniCarte", "operator": "UniBank", "network": "N/R", "latitude": 18.514217, "longitude": -72.2883721, "adm2_name": "Petion-Ville", "adm2_pcode": "HT0114", "adm1_name": "Ouest", "addr_city": "", "addr_street": "rue Faubert", "phone": "", "opening_hours": "", "website": "" }, "geometry": { "type": "Point", "coordinates": [ -72.2883721, 18.514217 ] } },
{ "type": "Feature", "properties": { "osm_id": 1102138983, "osm_type": "node", "type_service": "Banque commerciale", "name": "SogeBank", "operator": "N/R", "network": "N/R", "latitude": 18.5379378, "longitude": -72.2954411, "adm2_name": "Delmas", "adm2_pcode": "HT0112", "adm1_name": "Ouest", "addr_city": "", "addr_street": "", "phone": "", "opening_hours": "", "website": "" }, "geometry": { "type": "Point", "coordinates": [ -72.2954411, 18.5379378 ] } },
{ "type": "Feature", "properties": { "osm_id": 1102139023, "osm_type": "node", "type_service": "Banque commerciale", "name": "Banque Union Haitienne", "operator": "N/R", "network": "N/R", "latitude": 18.5407195, "longitude": -72.2977973, "adm2_name": "Delmas", "adm2_pcode": "HT0112", "adm1_name": "Ouest", "addr_city": "", "addr_street": "", "phone": "", "opening_hours": "", "website": "" }, "geometry": { "type": "Point", "coordinates": [ -72.2977973, 18.5407195 ] } },
{ "type": "Feature", "properties": { "osm_id": 1108073763, "osm_type": "node", "type_service": "Banque commerciale", "name": "cam transfer", "operator": "N/R", "network": "N/R", "latitude": 18.2388945, "longitude": -72.5382734, "adm2_name": "Jacmel", "adm2_pcode": "HT0211", "adm1_name": "Sud-Est", "addr_city": "", "addr_street": "rue seymour pradel", "phone": "", "opening_hours": "Mo-Fr 08:30-20:00", "website": "" }, "geometry": { "type": "Point", "coordinates": [ -72.5382734, 18.2388945 ] } },
{ "type": "Feature", "properties": { "osm_id": 1108073909, "osm_type": "node", "type_service": "Banque commerciale", "name": "unibank", "operator": "N/R", "network": "N/R", "latitude": 18.2394424, "longitude": -72.5390149, "adm2_name": "Jacmel", "adm2_pcode": "HT0211", "adm1_name": "Sud-Est", "addr_city": "", "addr_street": "rue avenue de la liberte", "phone": "", "opening_hours": "Mo-Fr 08:30-20:00", "website": "" }, "geometry": { "type": "Point", "coordinates": [ -72.5390149, 18.2394424 ] } },
{ "type": "Feature", "properties": { "osm_id": 1108073942, "osm_type": "node", "type_service": "Banque commerciale", "name": "b n c", "operator": "N/R", "network": "N/R", "latitude": 18.2395386, "longitude": -72.539377, "adm2_name": "Jacmel", "adm2_pcode": "HT0211", "adm1_name": "Sud-Est", "addr_city": "", "addr_street": "rue avenue de la liberte", "phone": "", "opening_hours": "Mo-Fr 08:30-20:00", "website": "" }, "geometry": { "type": "Point", "coordinates": [ -72.539377, 18.2395386 ] } },
{ "type": "Feature", "properties": { "osm_id": 1108074031, "osm_type": "node", "type_service": "Banque commerciale", "name": "soge bank", "operator": "N/R", "network": "N/R", "latitude": 18.2392935, "longitude": -72.5387446, "adm2_name": "Jacmel", "adm2_pcode": "HT0211", "adm1_name": "Sud-Est", "addr_city": "", "addr_street": "rue avenue de la liberte", "phone": "", "opening_hours": "Mo-Fr 08:30-20:00", "website": "" }, "geometry": { "type": "Point", "coordinates": [ -72.5387446, 18.2392935 ] } },
{ "type": "Feature", "properties": { "osm_id": 1108074043, "osm_type": "node", "type_service": "Banque commerciale", "name": "N/R", "operator": "ona", "network": "N/R", "latitude": 18.2373796, "longitude": -72.5375822, "adm2_name": "Jacmel", "adm2_pcode": "HT0211", "adm1_name": "Sud-Est", "addr_city": "", "addr_street": "Rue Petion", "phone": "", "opening_hours": "Mo-Fr 08:30-16:00", "website": "" }, "geometry": { "type": "Point", "coordinates": [ -72.5375822, 18.2373796 ] } },
{ "type": "Feature", "properties": { "osm_id": 1108319246, "osm_type": "node", "type_service": "IMF", "name": "Bureau Fonkoze et Money Gram Transfert", "operator": "N/R", "network": "N/R", "latitude": 18.6653005, "longitude": -71.8850117, "adm2_name": "Cornillon / Grand Bois", "adm2_pcode": "HT0134", "adm1_name": "Ouest", "addr_city": "", "addr_street": "", "phone": "", "opening_hours": "", "website": "" }, "geometry": { "type": "Point", "coordinates": [ -71.8850117, 18.6653005 ] } },
{ "type": "Feature", "properties": { "osm_id": 1108339278, "osm_type": "node", "type_service": "Bureau de change", "name": "CAM", "operator": "N/R", "network": "N/R", "latitude": 19.6699363, "longitude": -72.6787061, "adm2_name": "Gros Morne", "adm2_pcode": "HT0521", "adm1_name": "Artibonite", "addr_city": "", "addr_street": "", "phone": "", "opening_hours": "", "website": "" }, "geometry": { "type": "Point", "coordinates": [ -72.6787061, 19.6699363 ] } },
{ "type": "Feature", "properties": { "osm_id": 1109574141, "osm_type": "node", "type_service": "Maison de transfert", "name": "cam et western union", "operator": "N/R", "network": "N/R", "latitude": 18.5537449, "longitude": -72.3158321, "adm2_name": "Delmas", "adm2_pcode": "HT0112", "adm1_name": "Ouest", "addr_city": "", "addr_street": "", "phone": "", "opening_hours": "Mo-Fr 08:30-20:00", "website": "" }, "geometry": { "type": "Point", "coordinates": [ -72.3158321, 18.5537449 ] } },
{ "type": "Feature", "properties": { "osm_id": 1109629984, "osm_type": "node", "type_service": "Autre (vending_machine)", "name": "N/R", "operator": "digicel", "network": "N/R", "latitude": 18.5485403, "longitude": -72.3053337, "adm2_name": "Delmas", "adm2_pcode": "HT0112", "adm1_name": "Ouest", "addr_city": "", "addr_street": "", "phone": "", "opening_hours": "", "website": "" }, "geometry": { "type": "Point", "coordinates": [ -72.3053337, 18.5485403 ] } },
{ "type": "Feature", "properties": { "osm_id": 1120069778, "osm_type": "node", "type_service": "Banque commerciale", "name": "Unibank", "operator": "N/R", "network": "N/R", "latitude": 18.5280584, "longitude": -72.27386, "adm2_name": "Petion-Ville", "adm2_pcode": "HT0114", "adm1_name": "Ouest", "addr_city": "", "addr_street": "Rte de Freres", "phone": "", "opening_hours": "", "website": "" }, "geometry": { "type": "Point", "coordinates": [ -72.27386, 18.5280584 ] } },
{ "type": "Feature", "properties": { "osm_id": 1124105298, "osm_type": "node", "type_service": "Autre (telephone)", "name": "N/R", "operator": "digicel", "network": "N/R", "latitude": 18.2364041, "longitude": -72.5353608, "adm2_name": "Jacmel", "adm2_pcode": "HT0211", "adm1_name": "Sud-Est", "addr_city": "", "addr_street": "ave barranquilla", "phone": "", "opening_hours": "", "website": "" }, "geometry": { "type": "Point", "coordinates": [ -72.5353608, 18.2364041 ] } },
{ "type": "Feature", "properties": { "osm_id": 1126780802, "osm_type": "node", "type_service": "Maison de transfert", "name": "Western Union", "operator": "Western Union", "network": "N/R", "latitude": 18.2366905, "longitude": -72.5327181, "adm2_name": "Jacmel", "adm2_pcode": "HT0211", "adm1_name": "Sud-Est", "addr_city": "jacmel", "addr_street": "ave.barranquilla", "phone": "37-64-52-82", "opening_hours": "Mo-Fr 08:30-20:00", "website": "" }, "geometry": { "type": "Point", "coordinates": [ -72.5327181, 18.2366905 ] } },
{ "type": "Feature", "properties": { "osm_id": 1126855054, "osm_type": "node", "type_service": "IMF", "name": "bureau central jacmel-mikro credit", "operator": "N/R", "network": "N/R", "latitude": 18.2370385, "longitude": -72.5374891, "adm2_name": "Jacmel", "adm2_pcode": "HT0211", "adm1_name": "Sud-Est", "addr_city": "", "addr_street": "ave la liberte", "phone": "", "opening_hours": "", "website": "" }, "geometry": { "type": "Point", "coordinates": [ -72.5374891, 18.2370385 ] } },
{ "type": "Feature", "properties": { "osm_id": 1126855633, "osm_type": "node", "type_service": "Maison de transfert", "name": "bureau cam transfert", "operator": "N/R", "network": "N/R", "latitude": 18.2364903, "longitude": -72.5376514, "adm2_name": "Jacmel", "adm2_pcode": "HT0211", "adm1_name": "Sud-Est", "addr_city": "", "addr_street": "ave la liberte", "phone": "", "opening_hours": "24/7", "website": "" }, "geometry": { "type": "Point", "coordinates": [ -72.5376514, 18.2364903 ] } },
{ "type": "Feature", "properties": { "osm_id": 1141397582, "osm_type": "node", "type_service": "Maison de transfert", "name": "N/R", "operator": "western union", "network": "N/R", "latitude": 18.2358344, "longitude": -72.535907, "adm2_name": "Jacmel", "adm2_pcode": "HT0211", "adm1_name": "Sud-Est", "addr_city": "jacmel", "addr_street": "rue dauphine", "phone": "", "opening_hours": "", "website": "" }, "geometry": { "type": "Point", "coordinates": [ -72.535907, 18.2358344 ] } },
{ "type": "Feature", "properties": { "osm_id": 1144218381, "osm_type": "node", "type_service": "Banque commerciale", "name": "bnc", "operator": "N/R", "network": "N/R", "latitude": 18.5090401, "longitude": -72.6305212, "adm2_name": "Leogane", "adm2_pcode": "HT0121", "adm1_name": "Ouest", "addr_city": "leogane", "addr_street": "grand rue", "phone": "", "opening_hours": "Tu-Su 08:00-15:00;Sa 08:00-12:00", "website": "" }, "geometry": { "type": "Point", "coordinates": [ -72.6305212, 18.5090401 ] } },
{ "type": "Feature", "properties": { "osm_id": 1144601819, "osm_type": "node", "type_service": "Maison de transfert", "name": "unitransfere", "operator": "N/R", "network": "N/R", "latitude": 18.2680944, "longitude": -72.6650724, "adm2_name": "La Vallee", "adm2_pcode": "HT0214", "adm1_name": "Sud-Est", "addr_city": "la vallé Jacmel", "addr_street": "ridore", "phone": "", "opening_hours": "", "website": "" }, "geometry": { "type": "Point", "coordinates": [ -72.6650724, 18.2680944 ] } },
{ "type": "Feature", "properties": { "osm_id": 1144603521, "osm_type": "node", "type_service": "Maison de transfert", "name": "N/R", "operator": "western union", "network": "N/R", "latitude": 18.1832563, "longitude": -72.7531085, "adm2_name": "Bainet", "adm2_pcode": "HT0221", "adm1_name": "Sud-Est", "addr_city": "bainet", "addr_street": "5eme bas grandour", "phone": "", "opening_hours": "", "website": "" }, "geometry": { "type": "Point", "coordinates": [ -72.7531085, 18.1832563 ] } },
{ "type": "Feature", "properties": { "osm_id": 1144604393, "osm_type": "node", "type_service": "Banque commerciale", "name": "N/R", "operator": "cam", "network": "N/R", "latitude": 18.1831166, "longitude": -72.7534835, "adm2_name": "Bainet", "adm2_pcode": "HT0221", "adm1_name": "Sud-Est", "addr_city": "ht", "addr_street": "5eme bas grandour", "phone": "", "opening_hours": "", "website": "" }, "geometry": { "type": "Point", "coordinates": [ -72.7534835, 18.1831166 ] } },
{ "type": "Feature", "properties": { "osm_id": 1146396997, "osm_type": "node", "type_service": "Non classifié", "name": "antenne", "operator": "digicel", "network": "N/R", "latitude": 18.244159, "longitude": -72.5377965, "adm2_name": "Jacmel", "adm2_pcode": "HT0211", "adm1_name": "Sud-Est", "addr_city": "jacmel", "addr_street": "rue st helene", "phone": "", "opening_hours": "", "website": "" }, "geometry": { "type": "Point", "coordinates": [ -72.5377965, 18.244159 ] } },
{ "type": "Feature", "properties": { "osm_id": 1153343874, "osm_type": "node", "type_service": "Non classifié", "name": "N/R", "operator": "digicel", "network": "N/R", "latitude": 18.2301806, "longitude": -72.4959647, "adm2_name": "Jacmel", "adm2_pcode": "HT0211", "adm1_name": "Sud-Est", "addr_city": "jacmel", "addr_street": "bayard 2", "phone": "", "opening_hours": "", "website": "" }, "geometry": { "type": "Point", "coordinates": [ -72.4959647, 18.2301806 ] } },
{ "type": "Feature", "properties": { "osm_id": 1155066311, "osm_type": "node", "type_service": "Bureau de change", "name": "phillippe agent de change", "operator": "N/R", "network": "N/R", "latitude": 18.227336, "longitude": -72.4654554, "adm2_name": "Jacmel", "adm2_pcode": "HT0211", "adm1_name": "Sud-Est", "addr_city": "jacmel", "addr_street": "cyvadier", "phone": "", "opening_hours": "", "website": "" }, "geometry": { "type": "Point", "coordinates": [ -72.4654554, 18.227336 ] } },
{ "type": "Feature", "properties": { "osm_id": 1155252492, "osm_type": "node", "type_service": "Autre (antenna)", "name": "pylonne communication", "operator": "natcom", "network": "N/R", "latitude": 19.4363198, "longitude": -72.6837875, "adm2_name": "Gonaives", "adm2_pcode": "HT0511", "adm1_name": "Artibonite", "addr_city": "2em citee chretienne", "addr_street": "", "phone": "", "opening_hours": "", "website": "" }, "geometry": { "type": "Point", "coordinates": [ -72.6837875, 19.4363198 ] } },
{ "type": "Feature", "properties": { "osm_id": 1156831596, "osm_type": "node", "type_service": "IMF", "name": "Centre de Formation d'Education Civique d'Assistance Communautaires aux Coopératives (CEFECACC) #18", "operator": "N/R", "network": "N/R", "latitude": 18.4961209, "longitude": -72.5847968, "adm2_name": "Leogane", "adm2_pcode": "HT0121", "adm1_name": "Ouest", "addr_city": "leogane", "addr_street": "mathieu ruelle nan rezon", "phone": "", "opening_hours": "", "website": "" }, "geometry": { "type": "Point", "coordinates": [ -72.5847968, 18.4961209 ] } },
{ "type": "Feature", "properties": { "osm_id": 1157678606, "osm_type": "node", "type_service": "IMF", "name": "direction generale des impots et agence locale de cayes jacmel", "operator": "N/R", "network": "N/R", "latitude": 18.2306333, "longitude": -72.3950937, "adm2_name": "Cayes-Jacmel", "adm2_pcode": "HT0213", "adm1_name": "Sud-Est", "addr_city": "jacmel", "addr_street": "", "phone": "", "opening_hours": "", "website": "" }, "geometry": { "type": "Point", "coordinates": [ -72.3950937, 18.2306333 ] } },
{ "type": "Feature", "properties": { "osm_id": 1158010333, "osm_type": "node", "type_service": "Non classifié", "name": "antenne", "operator": "digicel", "network": "N/R", "latitude": 18.2071499, "longitude": -72.5718963, "adm2_name": "Jacmel", "adm2_pcode": "HT0211", "adm1_name": "Sud-Est", "addr_city": "jacmel", "addr_street": "", "phone": "", "opening_hours": "", "website": "" }, "geometry": { "type": "Point", "coordinates": [ -72.5718963, 18.2071499 ] } },
{ "type": "Feature", "properties": { "osm_id": 1158012518, "osm_type": "node", "type_service": "Maison de transfert", "name": "unitransfer", "operator": "N/R", "network": "N/R", "latitude": 18.2167856, "longitude": -72.6227442, "adm2_name": "Jacmel", "adm2_pcode": "HT0211", "adm1_name": "Sud-Est", "addr_city": "jacmel", "addr_street": "la croix", "phone": "", "opening_hours": "", "website": "" }, "geometry": { "type": "Point", "coordinates": [ -72.6227442, 18.2167856 ] } },
{ "type": "Feature", "properties": { "osm_id": 1158029205, "osm_type": "node", "type_service": "Non classifié", "name": "N/R", "operator": "digicel", "network": "N/R", "latitude": 18.2321297, "longitude": -72.4002582, "adm2_name": "Cayes-Jacmel", "adm2_pcode": "HT0213", "adm1_name": "Sud-Est", "addr_city": "jacmel", "addr_street": "", "phone": "", "opening_hours": "", "website": "" }, "geometry": { "type": "Point", "coordinates": [ -72.4002582, 18.2321297 ] } },
{ "type": "Feature", "properties": { "osm_id": 1158032608, "osm_type": "node", "type_service": "Non classifié", "name": "N/R", "operator": "digicel", "network": "N/R", "latitude": 18.2305253, "longitude": -72.3989399, "adm2_name": "Cayes-Jacmel", "adm2_pcode": "HT0213", "adm1_name": "Sud-Est", "addr_city": "jacmel", "addr_street": "rue salomon", "phone": "", "opening_hours": "", "website": "" }, "geometry": { "type": "Point", "coordinates": [ -72.3989399, 18.2305253 ] } },
{ "type": "Feature", "properties": { "osm_id": 1159387360, "osm_type": "node", "type_service": "Non classifié", "name": "N/R", "operator": "digicel", "network": "N/R", "latitude": 18.2546915, "longitude": -72.4009407, "adm2_name": "Cayes-Jacmel", "adm2_pcode": "HT0213", "adm1_name": "Sud-Est", "addr_city": "jacmel", "addr_street": "", "phone": "", "opening_hours": "", "website": "" }, "geometry": { "type": "Point", "coordinates": [ -72.4009407, 18.2546915 ] } },
{ "type": "Feature", "properties": { "osm_id": 1159778818, "osm_type": "node", "type_service": "Maison de transfert", "name": "sogexpress", "operator": "N/R", "network": "N/R", "latitude": 19.4480417, "longitude": -72.693217, "adm2_name": "Gonaives", "adm2_pcode": "HT0511", "adm1_name": "Artibonite", "addr_city": "", "addr_street": "", "phone": "", "opening_hours": "Mo-Sa 08:00-16:00", "website": "" }, "geometry": { "type": "Point", "coordinates": [ -72.693217, 19.4480417 ] } },
{ "type": "Feature", "properties": { "osm_id": 1159779439, "osm_type": "node", "type_service": "Banque commerciale", "name": "Capital Bank", "operator": "Capital Bank", "network": "N/R", "latitude": 19.447462, "longitude": -72.6948782, "adm2_name": "Gonaives", "adm2_pcode": "HT0511", "adm1_name": "Artibonite", "addr_city": "", "addr_street": "", "phone": "", "opening_hours": "Mo-Sa 08:00-16:00", "website": "" }, "geometry": { "type": "Point", "coordinates": [ -72.6948782, 19.447462 ] } },
{ "type": "Feature", "properties": { "osm_id": 1159779905, "osm_type": "node", "type_service": "Banque commerciale", "name": "sogebank", "operator": "N/R", "network": "N/R", "latitude": 19.4480371, "longitude": -72.694629, "adm2_name": "Gonaives", "adm2_pcode": "HT0511", "adm1_name": "Artibonite", "addr_city": "", "addr_street": "", "phone": "", "opening_hours": "Mo-Sa 08:00-16:00", "website": "" }, "geometry": { "type": "Point", "coordinates": [ -72.694629, 19.4480371 ] } },
{ "type": "Feature", "properties": { "osm_id": 1159780189, "osm_type": "node", "type_service": "IMF", "name": "fonkoze", "operator": "N/R", "network": "N/R", "latitude": 19.4482253, "longitude": -72.6946577, "adm2_name": "Gonaives", "adm2_pcode": "HT0511", "adm1_name": "Artibonite", "addr_city": "", "addr_street": "", "phone": "", "opening_hours": "Mo-Sa 08:00-16:00", "website": "" }, "geometry": { "type": "Point", "coordinates": [ -72.6946577, 19.4482253 ] } },
{ "type": "Feature", "properties": { "osm_id": 1159780421, "osm_type": "node", "type_service": "Banque commerciale", "name": "banque de l'union haitienne", "operator": "N/R", "network": "N/R", "latitude": 19.4473303, "longitude": -72.6946597, "adm2_name": "Gonaives", "adm2_pcode": "HT0511", "adm1_name": "Artibonite", "addr_city": "", "addr_street": "", "phone": "", "opening_hours": "Mo-Sa 08:00-16:00", "website": "" }, "geometry": { "type": "Point", "coordinates": [ -72.6946597, 19.4473303 ] } },
{ "type": "Feature", "properties": { "osm_id": 1159938884, "osm_type": "node", "type_service": "Bureau de change", "name": "union des freres bureau d'echange", "operator": "N/R", "network": "N/R", "latitude": 19.4416268, "longitude": -72.6740955, "adm2_name": "Gonaives", "adm2_pcode": "HT0511", "adm1_name": "Artibonite", "addr_city": "", "addr_street": "", "phone": "", "opening_hours": "7:00-17:00", "website": "" }, "geometry": { "type": "Point", "coordinates": [ -72.6740955, 19.4416268 ] } },
{ "type": "Feature", "properties": { "osm_id": 1166411848, "osm_type": "node", "type_service": "Bureau de change", "name": "bureau agricole communal de marigot", "operator": "agencia espanol cooperacion international", "network": "N/R", "latitude": 18.2355197, "longitude": -72.3160473, "adm2_name": "Marigot", "adm2_pcode": "HT0212", "adm1_name": "Sud-Est", "addr_city": "jacmel", "addr_street": "bois thomas", "phone": "", "opening_hours": "", "website": "" }, "geometry": { "type": "Point", "coordinates": [ -72.3160473, 18.2355197 ] } },
{ "type": "Feature", "properties": { "osm_id": 1167024498, "osm_type": "node", "type_service": "IMF", "name": "caisse populaire de peredo", "operator": "N/R", "network": "N/R", "latitude": 18.24746, "longitude": -72.3038973, "adm2_name": "Marigot", "adm2_pcode": "HT0212", "adm1_name": "Sud-Est", "addr_city": "jacmel", "addr_street": "peredo", "phone": "", "opening_hours": "", "website": "" }, "geometry": { "type": "Point", "coordinates": [ -72.3038973, 18.24746 ] } },
{ "type": "Feature", "properties": { "osm_id": 1167059183, "osm_type": "node", "type_service": "IMF", "name": "bureau fonkoze de marigot", "operator": "N/R", "network": "N/R", "latitude": 18.2322137, "longitude": -72.3215699, "adm2_name": "Marigot", "adm2_pcode": "HT0212", "adm1_name": "Sud-Est", "addr_city": "", "addr_street": "", "phone": "", "opening_hours": "", "website": "" }, "geometry": { "type": "Point", "coordinates": [ -72.3215699, 18.2322137 ] } },
{ "type": "Feature", "properties": { "osm_id": 1170965053, "osm_type": "node", "type_service": "IMF", "name": "caisse populaire ressource confiance de marigot", "operator": "N/R", "network": "N/R", "latitude": 18.2338599, "longitude": -72.315195, "adm2_name": "Marigot", "adm2_pcode": "HT0212", "adm1_name": "Sud-Est", "addr_city": "marigot", "addr_street": "rue fesles", "phone": "37-09-56-33", "opening_hours": "", "website": "" }, "geometry": { "type": "Point", "coordinates": [ -72.315195, 18.2338599 ] } },
{ "type": "Feature", "properties": { "osm_id": 1171583252, "osm_type": "node", "type_service": "Non classifié", "name": "N/R", "operator": "Digicel", "network": "N/R", "latitude": 19.4394292, "longitude": -72.6605338, "adm2_name": "Gonaives", "adm2_pcode": "HT0511", "adm1_name": "Artibonite", "addr_city": "Route Nationale, pont gaudin", "addr_street": "", "phone": "", "opening_hours": "", "website": "" }, "geometry": { "type": "Point", "coordinates": [ -72.6605338, 19.4394292 ] } },
{ "type": "Feature", "properties": { "osm_id": 1171584366, "osm_type": "node", "type_service": "Maison de transfert", "name": "CAM transfert", "operator": "N/R", "network": "N/R", "latitude": 19.4677815, "longitude": -72.6746445, "adm2_name": "Gonaives", "adm2_pcode": "HT0511", "adm1_name": "Artibonite", "addr_city": "Route nationale #1 Gatreau", "addr_street": "", "phone": "", "opening_hours": "24/7", "website": "" }, "geometry": { "type": "Point", "coordinates": [ -72.6746445, 19.4677815 ] } },
{ "type": "Feature", "properties": { "osm_id": 1171584799, "osm_type": "node", "type_service": "Maison de transfert", "name": "western union", "operator": "N/R", "network": "N/R", "latitude": 19.4435923, "longitude": -72.6801543, "adm2_name": "Gonaives", "adm2_pcode": "HT0511", "adm1_name": "Artibonite", "addr_city": "Route Nationale, Descahos", "addr_street": "", "phone": "", "opening_hours": "24/7", "website": "" }, "geometry": { "type": "Point", "coordinates": [ -72.6801543, 19.4435923 ] } },
{ "type": "Feature", "properties": { "osm_id": 1171588107, "osm_type": "node", "type_service": "Maison de transfert", "name": "Western Union", "operator": "Western Union", "network": "N/R", "latitude": 19.4440248, "longitude": -72.6817358, "adm2_name": "Gonaives", "adm2_pcode": "HT0511", "adm1_name": "Artibonite", "addr_city": "Route Nationale, Descahos", "addr_street": "", "phone": "", "opening_hours": "24/7", "website": "" }, "geometry": { "type": "Point", "coordinates": [ -72.6817358, 19.4440248 ] } },
{ "type": "Feature", "properties": { "osm_id": 1171591150, "osm_type": "node", "type_service": "Maison de transfert", "name": "Western Union", "operator": "N/R", "network": "N/R", "latitude": 19.443405, "longitude": -72.6795821, "adm2_name": "Gonaives", "adm2_pcode": "HT0511", "adm1_name": "Artibonite", "addr_city": "Route Nationale, Carrfou SEPRNN", "addr_street": "", "phone": "", "opening_hours": "Mo-Fr 08:30-20:00", "website": "" }, "geometry": { "type": "Point", "coordinates": [ -72.6795821, 19.443405 ] } },
{ "type": "Feature", "properties": { "osm_id": 1171591565, "osm_type": "node", "type_service": "IMF", "name": "Caisse populaire CAPOFRAGO", "operator": "N/R", "network": "N/R", "latitude": 19.4441184, "longitude": -72.6823755, "adm2_name": "Gonaives", "adm2_pcode": "HT0511", "adm1_name": "Artibonite", "addr_city": "Route Nationale, Descahos", "addr_street": "", "phone": "", "opening_hours": "24/7", "website": "" }, "geometry": { "type": "Point", "coordinates": [ -72.6823755, 19.4441184 ] } },
{ "type": "Feature", "properties": { "osm_id": 1171592881, "osm_type": "node", "type_service": "Maison de transfert", "name": "Western Union", "operator": "Western Union", "network": "N/R", "latitude": 19.4510329, "longitude": -72.684647, "adm2_name": "Gonaives", "adm2_pcode": "HT0511", "adm1_name": "Artibonite", "addr_city": "Route Dattes", "addr_street": "", "phone": "", "opening_hours": "24/7", "website": "" }, "geometry": { "type": "Point", "coordinates": [ -72.684647, 19.4510329 ] } },
{ "type": "Feature", "properties": { "osm_id": 1172624006, "osm_type": "node", "type_service": "Non classifié", "name": "anterne", "operator": "digicel", "network": "N/R", "latitude": 18.2657744, "longitude": -72.5594546, "adm2_name": "Jacmel", "adm2_pcode": "HT0211", "adm1_name": "Sud-Est", "addr_city": "jacmel", "addr_street": "la voute", "phone": "", "opening_hours": "", "website": "" }, "geometry": { "type": "Point", "coordinates": [ -72.5594546, 18.2657744 ] } },
{ "type": "Feature", "properties": { "osm_id": 1179356698, "osm_type": "node", "type_service": "Maison de transfert", "name": "western union", "operator": "N/R", "network": "N/R", "latitude": 18.5794774, "longitude": -72.2269165, "adm2_name": "Croix-Des-Bouquets", "adm2_pcode": "HT0131", "adm1_name": "Ouest", "addr_city": "", "addr_street": "rue stenio", "phone": "", "opening_hours": "24/7", "website": "" }, "geometry": { "type": "Point", "coordinates": [ -72.2269165, 18.5794774 ] } },
{ "type": "Feature", "properties": { "osm_id": 1179396303, "osm_type": "node", "type_service": "Banque commerciale", "name": "BNC", "operator": "N/R", "network": "N/R", "latitude": 18.5771526, "longitude": -72.2284874, "adm2_name": "Croix-Des-Bouquets", "adm2_pcode": "HT0131", "adm1_name": "Ouest", "addr_city": "", "addr_street": "", "phone": "", "opening_hours": "", "website": "" }, "geometry": { "type": "Point", "coordinates": [ -72.2284874, 18.5771526 ] } },
{ "type": "Feature", "properties": { "osm_id": 1179396306, "osm_type": "node", "type_service": "Banque commerciale", "name": "unibank", "operator": "N/R", "network": "N/R", "latitude": 18.5769959, "longitude": -72.228545, "adm2_name": "Croix-Des-Bouquets", "adm2_pcode": "HT0131", "adm1_name": "Ouest", "addr_city": "", "addr_street": "", "phone": "", "opening_hours": "", "website": "" }, "geometry": { "type": "Point", "coordinates": [ -72.228545, 18.5769959 ] } },
{ "type": "Feature", "properties": { "osm_id": 1179396354, "osm_type": "node", "type_service": "Maison de transfert", "name": "Western Union", "operator": "N/R", "network": "N/R", "latitude": 18.5774611, "longitude": -72.2266618, "adm2_name": "Croix-Des-Bouquets", "adm2_pcode": "HT0131", "adm1_name": "Ouest", "addr_city": "", "addr_street": "route nationale #3", "phone": "", "opening_hours": "", "website": "" }, "geometry": { "type": "Point", "coordinates": [ -72.2266618, 18.5774611 ] } },
{ "type": "Feature", "properties": { "osm_id": 1179396363, "osm_type": "node", "type_service": "Banque commerciale", "name": "Sogebank", "operator": "N/R", "network": "N/R", "latitude": 18.5774913, "longitude": -72.2264389, "adm2_name": "Croix-Des-Bouquets", "adm2_pcode": "HT0131", "adm1_name": "Ouest", "addr_city": "", "addr_street": "route nationale #3", "phone": "", "opening_hours": "", "website": "" }, "geometry": { "type": "Point", "coordinates": [ -72.2264389, 18.5774913 ] } },
{ "type": "Feature", "properties": { "osm_id": 1181182536, "osm_type": "node", "type_service": "Bureau de change", "name": "Piramide bureau de change", "operator": "N/R", "network": "N/R", "latitude": 18.578476, "longitude": -72.2254388, "adm2_name": "Croix-Des-Bouquets", "adm2_pcode": "HT0131", "adm1_name": "Ouest", "addr_city": "", "addr_street": "", "phone": "", "opening_hours": "", "website": "" }, "geometry": { "type": "Point", "coordinates": [ -72.2254388, 18.578476 ] } },
{ "type": "Feature", "properties": { "osm_id": 1183574568, "osm_type": "node", "type_service": "Maison de transfert", "name": "western union sogexpress", "operator": "N/R", "network": "N/R", "latitude": 19.4470284, "longitude": -72.690491, "adm2_name": "Gonaives", "adm2_pcode": "HT0511", "adm1_name": "Artibonite", "addr_city": "", "addr_street": "", "phone": "", "opening_hours": "8:00-3:00", "website": "" }, "geometry": { "type": "Point", "coordinates": [ -72.690491, 19.4470284 ] } },
{ "type": "Feature", "properties": { "osm_id": 1203000272, "osm_type": "node", "type_service": "Banque commerciale", "name": "Unibank", "operator": "N/R", "network": "N/R", "latitude": 18.5366905, "longitude": -72.2938357, "adm2_name": "Delmas", "adm2_pcode": "HT0112", "adm1_name": "Ouest", "addr_city": "", "addr_street": "", "phone": "", "opening_hours": "", "website": "" }, "geometry": { "type": "Point", "coordinates": [ -72.2938357, 18.5366905 ] } },
{ "type": "Feature", "properties": { "osm_id": 1203000286, "osm_type": "node", "type_service": "Maison de transfert", "name": "Western Union", "operator": "N/R", "network": "N/R", "latitude": 18.5379099, "longitude": -72.2954236, "adm2_name": "Delmas", "adm2_pcode": "HT0112", "adm1_name": "Ouest", "addr_city": "", "addr_street": "", "phone": "", "opening_hours": "", "website": "" }, "geometry": { "type": "Point", "coordinates": [ -72.2954236, 18.5379099 ] } },
{ "type": "Feature", "properties": { "osm_id": 1215864041, "osm_type": "node", "type_service": "Maison de transfert", "name": "SogeXPress", "operator": "N/R", "network": "N/R", "latitude": 18.5128547, "longitude": -72.2893042, "adm2_name": "Petion-Ville", "adm2_pcode": "HT0114", "adm1_name": "Ouest", "addr_city": "", "addr_street": "Rue Louverture", "phone": "", "opening_hours": "", "website": "" }, "geometry": { "type": "Point", "coordinates": [ -72.2893042, 18.5128547 ] } },
{ "type": "Feature", "properties": { "osm_id": 1227254817, "osm_type": "node", "type_service": "Non classifié", "name": "pylone natcom", "operator": "natcom", "network": "N/R", "latitude": 19.4672415, "longitude": -72.6399346, "adm2_name": "Gonaives", "adm2_pcode": "HT0511", "adm1_name": "Artibonite", "addr_city": "gonaives/1ere section haut descordes", "addr_street": "", "phone": "", "opening_hours": "", "website": "" }, "geometry": { "type": "Point", "coordinates": [ -72.6399346, 19.4672415 ] } },
{ "type": "Feature", "properties": { "osm_id": 1229710620, "osm_type": "node", "type_service": "IMF", "name": "Cooperative Vincent Oge ( COOPACVAD)", "operator": "N/R", "network": "N/R", "latitude": 19.5264341, "longitude": -72.2421238, "adm2_name": "Dondon", "adm2_pcode": "HT0342", "adm1_name": "Nord", "addr_city": "", "addr_street": "rue vincent oge Matador (dondon)", "phone": "", "opening_hours": "", "website": "" }, "geometry": { "type": "Point", "coordinates": [ -72.2421238, 19.5264341 ] } },
{ "type": "Feature", "properties": { "osm_id": 1231052993, "osm_type": "node", "type_service": "Bureau de change", "name": "Orival meli melo bureau de change", "operator": "N/R", "network": "N/R", "latitude": 19.3022591, "longitude": -72.6096535, "adm2_name": "L'Estere", "adm2_pcode": "HT0513", "adm1_name": "Artibonite", "addr_city": "Route nationale no1,boulevard jn jacques", "addr_street": "", "phone": "38147002", "opening_hours": "Tu-Su 08:00-15:00;Sa 08:00-12:00", "website": "" }, "geometry": { "type": "Point", "coordinates": [ -72.6096535, 19.3022591 ] } },
{ "type": "Feature", "properties": { "osm_id": 1244243036, "osm_type": "node", "type_service": "Bureau de change", "name": "Secours de l'Éternel", "operator": "N/R", "network": "N/R", "latitude": 19.2616671, "longitude": -72.5178406, "adm2_name": "Dessalines", "adm2_pcode": "HT0541", "adm1_name": "Artibonite", "addr_city": "marchand dessalines", "addr_street": "#4, rue charlotin", "phone": "3444-9211/3113-2853", "opening_hours": "", "website": "" }, "geometry": { "type": "Point", "coordinates": [ -72.5178406, 19.2616671 ] } },
{ "type": "Feature", "properties": { "osm_id": 1244243407, "osm_type": "node", "type_service": "IMF", "name": "Soco Lavim Caisse Populaire", "operator": "N/R", "network": "N/R", "latitude": 19.2626785, "longitude": -72.5155178, "adm2_name": "Dessalines", "adm2_pcode": "HT0541", "adm1_name": "Artibonite", "addr_city": "marchand dessalines", "addr_street": "#52;rue dupuy", "phone": "3752-5555", "opening_hours": "", "website": "" }, "geometry": { "type": "Point", "coordinates": [ -72.5155178, 19.2626785 ] } },
{ "type": "Feature", "properties": { "osm_id": 1250350134, "osm_type": "node", "type_service": "Banque commerciale", "name": "Scotiabank", "operator": "N/R", "network": "N/R", "latitude": 18.5126873, "longitude": -72.2853408, "adm2_name": "Petion-Ville", "adm2_pcode": "HT0114", "adm1_name": "Ouest", "addr_city": "Petion-Ville", "addr_street": "Rue Louverture", "phone": "", "opening_hours": "", "website": "" }, "geometry": { "type": "Point", "coordinates": [ -72.2853408, 18.5126873 ] } },
{ "type": "Feature", "properties": { "osm_id": 1250350153, "osm_type": "node", "type_service": "Banque commerciale", "name": "Sogebank Rue Darguin", "operator": "N/R", "network": "N/R", "latitude": 18.5135989, "longitude": -72.285332, "adm2_name": "Petion-Ville", "adm2_pcode": "HT0114", "adm1_name": "Ouest", "addr_city": "Petion-Ville", "addr_street": "Rue Darguin", "phone": "", "opening_hours": "", "website": "" }, "geometry": { "type": "Point", "coordinates": [ -72.285332, 18.5135989 ] } },
{ "type": "Feature", "properties": { "osm_id": 1252037983, "osm_type": "node", "type_service": "Banque commerciale", "name": "Capital Bank", "operator": "Capital Bank", "network": "N/R", "latitude": 18.5125849, "longitude": -72.2873863, "adm2_name": "Petion-Ville", "adm2_pcode": "HT0114", "adm1_name": "Ouest", "addr_city": "Pétion-Ville", "addr_street": "Rue Lamarre", "phone": "", "opening_hours": "", "website": "" }, "geometry": { "type": "Point", "coordinates": [ -72.2873863, 18.5125849 ] } },
{ "type": "Feature", "properties": { "osm_id": 1255966263, "osm_type": "node", "type_service": "Banque commerciale", "name": "N/R", "operator": "SogeBank", "network": "N/R", "latitude": 18.577243, "longitude": -72.2784979, "adm2_name": "Tabarre", "adm2_pcode": "HT0118", "adm1_name": "Ouest", "addr_city": "", "addr_street": "", "phone": "", "opening_hours": "", "website": "" }, "geometry": { "type": "Point", "coordinates": [ -72.2784979, 18.577243 ] } },
{ "type": "Feature", "properties": { "osm_id": 1268096470, "osm_type": "node", "type_service": "Banque commerciale", "name": "Unibank", "operator": "N/R", "network": "N/R", "latitude": 18.6449722, "longitude": -74.1131858, "adm2_name": "Jeremie", "adm2_pcode": "HT0811", "adm1_name": "Grand'Anse", "addr_city": "", "addr_street": "", "phone": "", "opening_hours": "", "website": "" }, "geometry": { "type": "Point", "coordinates": [ -74.1131858, 18.6449722 ] } },
{ "type": "Feature", "properties": { "osm_id": 1268131263, "osm_type": "node", "type_service": "Bureau de change", "name": "Intransfer", "operator": "N/R", "network": "N/R", "latitude": 18.6458255, "longitude": -74.1136437, "adm2_name": "Jeremie", "adm2_pcode": "HT0811", "adm1_name": "Grand'Anse", "addr_city": "", "addr_street": "", "phone": "", "opening_hours": "", "website": "" }, "geometry": { "type": "Point", "coordinates": [ -74.1136437, 18.6458255 ] } },
{ "type": "Feature", "properties": { "osm_id": 1268278577, "osm_type": "node", "type_service": "Banque commerciale", "name": "Banque Nationale de Crédit (BNC)", "operator": "BNC", "network": "N/R", "latitude": 18.6430152, "longitude": -74.1137412, "adm2_name": "Jeremie", "adm2_pcode": "HT0811", "adm1_name": "Grand'Anse", "addr_city": "", "addr_street": "", "phone": "", "opening_hours": "", "website": "" }, "geometry": { "type": "Point", "coordinates": [ -74.1137412, 18.6430152 ] } },
{ "type": "Feature", "properties": { "osm_id": 1315816832, "osm_type": "node", "type_service": "Banque commerciale", "name": "SogeBel", "operator": "N/R", "network": "N/R", "latitude": 18.5648595, "longitude": -72.3135408, "adm2_name": "Delmas", "adm2_pcode": "HT0112", "adm1_name": "Ouest", "addr_city": "", "addr_street": "Blvd Toussaint Louverture", "phone": "", "opening_hours": "", "website": "" }, "geometry": { "type": "Point", "coordinates": [ -72.3135408, 18.5648595 ] } },
{ "type": "Feature", "properties": { "osm_id": 1315816848, "osm_type": "node", "type_service": "Banque commerciale", "name": "Citi", "operator": "N/R", "network": "N/R", "latitude": 18.5678746, "longitude": -72.3117706, "adm2_name": "Delmas", "adm2_pcode": "HT0112", "adm1_name": "Ouest", "addr_city": "", "addr_street": "Blvd Toussaint Louverture", "phone": "", "opening_hours": "", "website": "" }, "geometry": { "type": "Point", "coordinates": [ -72.3117706, 18.5678746 ] } },
{ "type": "Feature", "properties": { "osm_id": 1315816850, "osm_type": "node", "type_service": "Banque commerciale", "name": "Capital Bank", "operator": "N/R", "network": "N/R", "latitude": 18.5694067, "longitude": -72.3103973, "adm2_name": "Delmas", "adm2_pcode": "HT0112", "adm1_name": "Ouest", "addr_city": "", "addr_street": "Blvd Toussaint Louverture", "phone": "", "opening_hours": "", "website": "" }, "geometry": { "type": "Point", "coordinates": [ -72.3103973, 18.5694067 ] } },
{ "type": "Feature", "properties": { "osm_id": 1316377404, "osm_type": "node", "type_service": "Non classifié", "name": "N/R", "operator": "Digicel", "network": "N/R", "latitude": 18.5329822, "longitude": -72.323362, "adm2_name": "Port-au-Prince", "adm2_pcode": "HT0111", "adm1_name": "Ouest", "addr_city": "", "addr_street": "", "phone": "", "opening_hours": "", "website": "" }, "geometry": { "type": "Point", "coordinates": [ -72.323362, 18.5329822 ] } },
{ "type": "Feature", "properties": { "osm_id": 1422385006, "osm_type": "node", "type_service": "Bureau de change", "name": "N/R", "operator": "N/R", "network": "N/R", "latitude": 18.5730898, "longitude": -72.2808135, "adm2_name": "Tabarre", "adm2_pcode": "HT0118", "adm1_name": "Ouest", "addr_city": "", "addr_street": "", "phone": "", "opening_hours": "", "website": "" }, "geometry": { "type": "Point", "coordinates": [ -72.2808135, 18.5730898 ] } },
{ "type": "Feature", "properties": { "osm_id": 1424207020, "osm_type": "node", "type_service": "Banque commerciale", "name": "Unibank", "operator": "Unibank", "network": "N/R", "latitude": 18.5335606, "longitude": -72.3337572, "adm2_name": "Port-au-Prince", "adm2_pcode": "HT0111", "adm1_name": "Ouest", "addr_city": "", "addr_street": "", "phone": "", "opening_hours": "", "website": "" }, "geometry": { "type": "Point", "coordinates": [ -72.3337572, 18.5335606 ] } },
{ "type": "Feature", "properties": { "osm_id": 1427537083, "osm_type": "node", "type_service": "Maison de transfert", "name": "SogeXpress", "operator": "N/R", "network": "N/R", "latitude": 18.5847298, "longitude": -72.2738599, "adm2_name": "Tabarre", "adm2_pcode": "HT0118", "adm1_name": "Ouest", "addr_city": "", "addr_street": "", "phone": "", "opening_hours": "", "website": "" }, "geometry": { "type": "Point", "coordinates": [ -72.2738599, 18.5847298 ] } },
{ "type": "Feature", "properties": { "osm_id": 1444587331, "osm_type": "node", "type_service": "Non classifié", "name": "N/R", "operator": "Digicel", "network": "N/R", "latitude": 18.3682716, "longitude": -72.5849493, "adm2_name": "Leogane", "adm2_pcode": "HT0121", "adm1_name": "Ouest", "addr_city": "", "addr_street": "", "phone": "", "opening_hours": "", "website": "" }, "geometry": { "type": "Point", "coordinates": [ -72.5849493, 18.3682716 ] } },
{ "type": "Feature", "properties": { "osm_id": 1448369108, "osm_type": "node", "type_service": "Banque commerciale", "name": "N/R", "operator": "SogeBank", "network": "N/R", "latitude": 18.5780395, "longitude": -72.2752792, "adm2_name": "Tabarre", "adm2_pcode": "HT0118", "adm1_name": "Ouest", "addr_city": "", "addr_street": "", "phone": "", "opening_hours": "", "website": "" }, "geometry": { "type": "Point", "coordinates": [ -72.2752792, 18.5780395 ] } },
{ "type": "Feature", "properties": { "osm_id": 1449499433, "osm_type": "node", "type_service": "Banque commerciale", "name": "BNC", "operator": "N/R", "network": "N/R", "latitude": 18.5484896, "longitude": -72.3067609, "adm2_name": "Delmas", "adm2_pcode": "HT0112", "adm1_name": "Ouest", "addr_city": "", "addr_street": "", "phone": "", "opening_hours": "", "website": "" }, "geometry": { "type": "Point", "coordinates": [ -72.3067609, 18.5484896 ] } },
{ "type": "Feature", "properties": { "osm_id": 1535360916, "osm_type": "node", "type_service": "Banque commerciale", "name": "Sogebank", "operator": "N/R", "network": "N/R", "latitude": 18.234547, "longitude": -72.5374904, "adm2_name": "Jacmel", "adm2_pcode": "HT0211", "adm1_name": "Sud-Est", "addr_city": "", "addr_street": "Avenue de la Liberté", "phone": "", "opening_hours": "", "website": "" }, "geometry": { "type": "Point", "coordinates": [ -72.5374904, 18.234547 ] } },
{ "type": "Feature", "properties": { "osm_id": 1535369935, "osm_type": "node", "type_service": "Banque commerciale", "name": "Unibank", "operator": "N/R", "network": "N/R", "latitude": 18.2352196, "longitude": -72.537978, "adm2_name": "Jacmel", "adm2_pcode": "HT0211", "adm1_name": "Sud-Est", "addr_city": "", "addr_street": "", "phone": "", "opening_hours": "", "website": "" }, "geometry": { "type": "Point", "coordinates": [ -72.537978, 18.2352196 ] } },
{ "type": "Feature", "properties": { "osm_id": 1535373035, "osm_type": "node", "type_service": "Banque commerciale", "name": "Banque National de Credit", "operator": "N/R", "network": "N/R", "latitude": 18.2358164, "longitude": -72.5378987, "adm2_name": "Jacmel", "adm2_pcode": "HT0211", "adm1_name": "Sud-Est", "addr_city": "", "addr_street": "", "phone": "", "opening_hours": "", "website": "" }, "geometry": { "type": "Point", "coordinates": [ -72.5378987, 18.2358164 ] } },
{ "type": "Feature", "properties": { "osm_id": 1546658877, "osm_type": "node", "type_service": "Banque commerciale", "name": "N/R", "operator": "Sogebank", "network": "N/R", "latitude": 19.1083846, "longitude": -72.7011432, "adm2_name": "Saint-Marc", "adm2_pcode": "HT0531", "adm1_name": "Artibonite", "addr_city": "", "addr_street": "Rue Armand Thoby", "phone": "", "opening_hours": "", "website": "" }, "geometry": { "type": "Point", "coordinates": [ -72.7011432, 19.1083846 ] } },
{ "type": "Feature", "properties": { "osm_id": 1601680548, "osm_type": "node", "type_service": "Bureau de change", "name": "Bureau de Saint Marc", "operator": "N/R", "network": "N/R", "latitude": 19.1149079, "longitude": -72.6951384, "adm2_name": "Saint-Marc", "adm2_pcode": "HT0531", "adm1_name": "Artibonite", "addr_city": "", "addr_street": "", "phone": "", "opening_hours": "", "website": "" }, "geometry": { "type": "Point", "coordinates": [ -72.6951384, 19.1149079 ] } },
{ "type": "Feature", "properties": { "osm_id": 1603596890, "osm_type": "node", "type_service": "Banque commerciale", "name": "BNC", "operator": "N/R", "network": "N/R", "latitude": 19.1096974, "longitude": -72.7008342, "adm2_name": "Saint-Marc", "adm2_pcode": "HT0531", "adm1_name": "Artibonite", "addr_city": "", "addr_street": "Pivert", "phone": "", "opening_hours": "", "website": "" }, "geometry": { "type": "Point", "coordinates": [ -72.7008342, 19.1096974 ] } },
{ "type": "Feature", "properties": { "osm_id": 1603668359, "osm_type": "node", "type_service": "IMF", "name": "ACME", "operator": "N/R", "network": "N/R", "latitude": 19.1096216, "longitude": -72.6997896, "adm2_name": "Saint-Marc", "adm2_pcode": "HT0531", "adm1_name": "Artibonite", "addr_city": "", "addr_street": "Angle Rue Savannah et Rue Surpris Laurent", "phone": "", "opening_hours": "", "website": "" }, "geometry": { "type": "Point", "coordinates": [ -72.6997896, 19.1096216 ] } },
{ "type": "Feature", "properties": { "osm_id": 1603668436, "osm_type": "node", "type_service": "Guichet ATM", "name": "N/R", "operator": "Money Gram", "network": "N/R", "latitude": 19.1099356, "longitude": -72.7014177, "adm2_name": "Saint-Marc", "adm2_pcode": "HT0531", "adm1_name": "Artibonite", "addr_city": "", "addr_street": "", "phone": "", "opening_hours": "", "website": "" }, "geometry": { "type": "Point", "coordinates": [ -72.7014177, 19.1099356 ] } },
{ "type": "Feature", "properties": { "osm_id": 1612279857, "osm_type": "node", "type_service": "Maison de transfert", "name": "western union", "operator": "N/R", "network": "N/R", "latitude": 19.1061839, "longitude": -72.6946026, "adm2_name": "Saint-Marc", "adm2_pcode": "HT0531", "adm1_name": "Artibonite", "addr_city": "", "addr_street": "rue pivert", "phone": "", "opening_hours": "", "website": "" }, "geometry": { "type": "Point", "coordinates": [ -72.6946026, 19.1061839 ] } },
{ "type": "Feature", "properties": { "osm_id": 1614519587, "osm_type": "node", "type_service": "Non classifié", "name": "Digicel", "operator": "Digicel", "network": "N/R", "latitude": 19.0919453, "longitude": -72.6565086, "adm2_name": "Saint-Marc", "adm2_pcode": "HT0531", "adm1_name": "Artibonite", "addr_city": "", "addr_street": "Ruelle Mavum(Barbe)", "phone": "", "opening_hours": "", "website": "" }, "geometry": { "type": "Point", "coordinates": [ -72.6565086, 19.0919453 ] } },
{ "type": "Feature", "properties": { "osm_id": 1615955569, "osm_type": "node", "type_service": "Bureau de change", "name": "Unis Transfaire", "operator": "N/R", "network": "N/R", "latitude": 19.1015394, "longitude": -72.6909156, "adm2_name": "Saint-Marc", "adm2_pcode": "HT0531", "adm1_name": "Artibonite", "addr_city": "", "addr_street": "Route Pont-Tambour", "phone": "", "opening_hours": "08:00-16:00", "website": "" }, "geometry": { "type": "Point", "coordinates": [ -72.6909156, 19.1015394 ] } },
{ "type": "Feature", "properties": { "osm_id": 1616831456, "osm_type": "node", "type_service": "Bureau de change", "name": "Maranatha Boutique et Bureau D'echange", "operator": "N/R", "network": "N/R", "latitude": 19.1002689, "longitude": -72.6917021, "adm2_name": "Saint-Marc", "adm2_pcode": "HT0531", "adm1_name": "Artibonite", "addr_city": "", "addr_street": "Pont tambour", "phone": "", "opening_hours": "", "website": "" }, "geometry": { "type": "Point", "coordinates": [ -72.6917021, 19.1002689 ] } },
{ "type": "Feature", "properties": { "osm_id": 1617018631, "osm_type": "node", "type_service": "Bureau de change", "name": "Charlitto Bank", "operator": "N/R", "network": "N/R", "latitude": 18.1981825, "longitude": -73.7529735, "adm2_name": "Les Cayes", "adm2_pcode": "HT0711", "adm1_name": "Sud", "addr_city": "", "addr_street": "", "phone": "", "opening_hours": "", "website": "" }, "geometry": { "type": "Point", "coordinates": [ -73.7529735, 18.1981825 ] } },
{ "type": "Feature", "properties": { "osm_id": 1624374490, "osm_type": "node", "type_service": "Banque commerciale", "name": "Verittes Bank", "operator": "N/R", "network": "N/R", "latitude": 18.1975985, "longitude": -73.7505408, "adm2_name": "Les Cayes", "adm2_pcode": "HT0711", "adm1_name": "Sud", "addr_city": "", "addr_street": "", "phone": "", "opening_hours": "", "website": "" }, "geometry": { "type": "Point", "coordinates": [ -73.7505408, 18.1975985 ] } },
{ "type": "Feature", "properties": { "osm_id": 1625507494, "osm_type": "node", "type_service": "Banque commerciale", "name": "La Difference Bank", "operator": "N/R", "network": "N/R", "latitude": 18.1970506, "longitude": -73.7496681, "adm2_name": "Les Cayes", "adm2_pcode": "HT0711", "adm1_name": "Sud", "addr_city": "", "addr_street": "", "phone": "", "opening_hours": "", "website": "" }, "geometry": { "type": "Point", "coordinates": [ -73.7496681, 18.1970506 ] } },
{ "type": "Feature", "properties": { "osm_id": 1625659282, "osm_type": "node", "type_service": "Banque commerciale", "name": "Micro crédit Banque nationale", "operator": "N/R", "network": "N/R", "latitude": 18.1968292, "longitude": -73.7492529, "adm2_name": "Les Cayes", "adm2_pcode": "HT0711", "adm1_name": "Sud", "addr_city": "", "addr_street": "", "phone": "", "opening_hours": "", "website": "" }, "geometry": { "type": "Point", "coordinates": [ -73.7492529, 18.1968292 ] } },
{ "type": "Feature", "properties": { "osm_id": 1625708000, "osm_type": "node", "type_service": "Bureau de change", "name": "C.A.M", "operator": "N/R", "network": "N/R", "latitude": 18.1961177, "longitude": -73.7487151, "adm2_name": "Les Cayes", "adm2_pcode": "HT0711", "adm1_name": "Sud", "addr_city": "", "addr_street": "", "phone": "", "opening_hours": "", "website": "" }, "geometry": { "type": "Point", "coordinates": [ -73.7487151, 18.1961177 ] } },
{ "type": "Feature", "properties": { "osm_id": 1625708122, "osm_type": "node", "type_service": "Banque commerciale", "name": "Uni Bank", "operator": "N/R", "network": "N/R", "latitude": 18.1961404, "longitude": -73.7491825, "adm2_name": "Les Cayes", "adm2_pcode": "HT0711", "adm1_name": "Sud", "addr_city": "", "addr_street": "", "phone": "", "opening_hours": "", "website": "" }, "geometry": { "type": "Point", "coordinates": [ -73.7491825, 18.1961404 ] } },
{ "type": "Feature", "properties": { "osm_id": 1625715229, "osm_type": "node", "type_service": "IMF", "name": "Sevis Finance De Fonkoze", "operator": "N/R", "network": "N/R", "latitude": 18.1965561, "longitude": -73.7491153, "adm2_name": "Les Cayes", "adm2_pcode": "HT0711", "adm1_name": "Sud", "addr_city": "", "addr_street": "", "phone": "", "opening_hours": "", "website": "" }, "geometry": { "type": "Point", "coordinates": [ -73.7491153, 18.1965561 ] } },
{ "type": "Feature", "properties": { "osm_id": 1625723368, "osm_type": "node", "type_service": "Banque commerciale", "name": "Pas De Credit", "operator": "N/R", "network": "N/R", "latitude": 18.1964458, "longitude": -73.7490659, "adm2_name": "Les Cayes", "adm2_pcode": "HT0711", "adm1_name": "Sud", "addr_city": "", "addr_street": "", "phone": "", "opening_hours": "", "website": "" }, "geometry": { "type": "Point", "coordinates": [ -73.7490659, 18.1964458 ] } },
{ "type": "Feature", "properties": { "osm_id": 1625727765, "osm_type": "node", "type_service": "IMF", "name": "CAPOSUD (Caisse Populaire Du Sud)", "operator": "N/R", "network": "N/R", "latitude": 18.1951114, "longitude": -73.7473503, "adm2_name": "Les Cayes", "adm2_pcode": "HT0711", "adm1_name": "Sud", "addr_city": "", "addr_street": "", "phone": "", "opening_hours": "", "website": "" }, "geometry": { "type": "Point", "coordinates": [ -73.7473503, 18.1951114 ] } },
{ "type": "Feature", "properties": { "osm_id": 1625733639, "osm_type": "node", "type_service": "Maison de transfert", "name": "CAM Transfert", "operator": "N/R", "network": "N/R", "latitude": 18.1951935, "longitude": -73.7486556, "adm2_name": "Les Cayes", "adm2_pcode": "HT0711", "adm1_name": "Sud", "addr_city": "", "addr_street": "", "phone": "", "opening_hours": "", "website": "" }, "geometry": { "type": "Point", "coordinates": [ -73.7486556, 18.1951935 ] } },
{ "type": "Feature", "properties": { "osm_id": 1625735308, "osm_type": "node", "type_service": "IMF", "name": "Caisse Populaire Des Cayes", "operator": "N/R", "network": "N/R", "latitude": 18.1960003, "longitude": -73.747872, "adm2_name": "Les Cayes", "adm2_pcode": "HT0711", "adm1_name": "Sud", "addr_city": "", "addr_street": "", "phone": "", "opening_hours": "", "website": "" }, "geometry": { "type": "Point", "coordinates": [ -73.747872, 18.1960003 ] } },
{ "type": "Feature", "properties": { "osm_id": 1625946322, "osm_type": "node", "type_service": "Maison de transfert", "name": "Western Union", "operator": "Western Union", "network": "N/R", "latitude": 18.2012924, "longitude": -73.7608517, "adm2_name": "Les Cayes", "adm2_pcode": "HT0711", "adm1_name": "Sud", "addr_city": "", "addr_street": "", "phone": "", "opening_hours": "", "website": "" }, "geometry": { "type": "Point", "coordinates": [ -73.7608517, 18.2012924 ] } },
{ "type": "Feature", "properties": { "osm_id": 1627008030, "osm_type": "node", "type_service": "Maison de transfert", "name": "Western Union", "operator": "Western Union", "network": "N/R", "latitude": 18.1931247, "longitude": -73.7492017, "adm2_name": "Les Cayes", "adm2_pcode": "HT0711", "adm1_name": "Sud", "addr_city": "", "addr_street": "", "phone": "", "opening_hours": "", "website": "" }, "geometry": { "type": "Point", "coordinates": [ -73.7492017, 18.1931247 ] } },
{ "type": "Feature", "properties": { "osm_id": 1627301454, "osm_type": "node", "type_service": "IMF", "name": "CAPOSUD (Caisse Populaire Du Sud)", "operator": "N/R", "network": "N/R", "latitude": 18.1946067, "longitude": -73.7505122, "adm2_name": "Les Cayes", "adm2_pcode": "HT0711", "adm1_name": "Sud", "addr_city": "", "addr_street": "", "phone": "", "opening_hours": "", "website": "" }, "geometry": { "type": "Point", "coordinates": [ -73.7505122, 18.1946067 ] } },
{ "type": "Feature", "properties": { "osm_id": 1630429816, "osm_type": "node", "type_service": "Banque commerciale", "name": "Banque Nationale De Crédit", "operator": "N/R", "network": "N/R", "latitude": 18.1911639, "longitude": -73.7502516, "adm2_name": "Les Cayes", "adm2_pcode": "HT0711", "adm1_name": "Sud", "addr_city": "", "addr_street": "", "phone": "", "opening_hours": "", "website": "" }, "geometry": { "type": "Point", "coordinates": [ -73.7502516, 18.1911639 ] } },
{ "type": "Feature", "properties": { "osm_id": 1631465844, "osm_type": "node", "type_service": "Banque commerciale", "name": "Capital Bank", "operator": "N/R", "network": "N/R", "latitude": 18.194402, "longitude": -73.7492251, "adm2_name": "Les Cayes", "adm2_pcode": "HT0711", "adm1_name": "Sud", "addr_city": "", "addr_street": "", "phone": "", "opening_hours": "", "website": "" }, "geometry": { "type": "Point", "coordinates": [ -73.7492251, 18.194402 ] } },
{ "type": "Feature", "properties": { "osm_id": 1631481837, "osm_type": "node", "type_service": "Bureau de change", "name": "Money Gram", "operator": "N/R", "network": "N/R", "latitude": 18.1934278, "longitude": -73.7494123, "adm2_name": "Les Cayes", "adm2_pcode": "HT0711", "adm1_name": "Sud", "addr_city": "", "addr_street": "", "phone": "", "opening_hours": "", "website": "" }, "geometry": { "type": "Point", "coordinates": [ -73.7494123, 18.1934278 ] } },
{ "type": "Feature", "properties": { "osm_id": 1631835211, "osm_type": "node", "type_service": "Maison de transfert", "name": "Western Union", "operator": "Western Union", "network": "N/R", "latitude": 18.1924004, "longitude": -73.7496496, "adm2_name": "Les Cayes", "adm2_pcode": "HT0711", "adm1_name": "Sud", "addr_city": "", "addr_street": "", "phone": "", "opening_hours": "", "website": "" }, "geometry": { "type": "Point", "coordinates": [ -73.7496496, 18.1924004 ] } },
{ "type": "Feature", "properties": { "osm_id": 1631902098, "osm_type": "node", "type_service": "Bureau de change", "name": "C.A.M", "operator": "N/R", "network": "N/R", "latitude": 18.1942141, "longitude": -73.7483689, "adm2_name": "Les Cayes", "adm2_pcode": "HT0711", "adm1_name": "Sud", "addr_city": "", "addr_street": "", "phone": "", "opening_hours": "", "website": "" }, "geometry": { "type": "Point", "coordinates": [ -73.7483689, 18.1942141 ] } },
{ "type": "Feature", "properties": { "osm_id": 1632795976, "osm_type": "node", "type_service": "Maison de transfert", "name": "Western Union", "operator": "Western Union", "network": "N/R", "latitude": 18.1949834, "longitude": -73.748113, "adm2_name": "Les Cayes", "adm2_pcode": "HT0711", "adm1_name": "Sud", "addr_city": "", "addr_street": "", "phone": "", "opening_hours": "", "website": "" }, "geometry": { "type": "Point", "coordinates": [ -73.748113, 18.1949834 ] } },
{ "type": "Feature", "properties": { "osm_id": 1633077178, "osm_type": "node", "type_service": "Bureau de change", "name": "In God We Trust Money Exchange", "operator": "N/R", "network": "N/R", "latitude": 18.1944645, "longitude": -73.7454207, "adm2_name": "Les Cayes", "adm2_pcode": "HT0711", "adm1_name": "Sud", "addr_city": "", "addr_street": "", "phone": "", "opening_hours": "", "website": "" }, "geometry": { "type": "Point", "coordinates": [ -73.7454207, 18.1944645 ] } },
{ "type": "Feature", "properties": { "osm_id": 1633101750, "osm_type": "node", "type_service": "Bureau de change", "name": "Amitty Bank", "operator": "N/R", "network": "N/R", "latitude": 18.1921663, "longitude": -73.744987, "adm2_name": "Les Cayes", "adm2_pcode": "HT0711", "adm1_name": "Sud", "addr_city": "", "addr_street": "", "phone": "", "opening_hours": "", "website": "" }, "geometry": { "type": "Point", "coordinates": [ -73.744987, 18.1921663 ] } },
{ "type": "Feature", "properties": { "osm_id": 1633103181, "osm_type": "node", "type_service": "Bureau de change", "name": "Chez Gurdy Bank", "operator": "N/R", "network": "N/R", "latitude": 18.1932411, "longitude": -73.7448048, "adm2_name": "Les Cayes", "adm2_pcode": "HT0711", "adm1_name": "Sud", "addr_city": "", "addr_street": "", "phone": "", "opening_hours": "", "website": "" }, "geometry": { "type": "Point", "coordinates": [ -73.7448048, 18.1932411 ] } },
{ "type": "Feature", "properties": { "osm_id": 1643325948, "osm_type": "node", "type_service": "Banque commerciale", "name": "N/R", "operator": "Sogebank", "network": "N/R", "latitude": 18.8341123, "longitude": -72.1050872, "adm2_name": "Mirebalais", "adm2_pcode": "HT0621", "adm1_name": "Centre", "addr_city": "", "addr_street": "", "phone": "", "opening_hours": "", "website": "" }, "geometry": { "type": "Point", "coordinates": [ -72.1050872, 18.8341123 ] } },
{ "type": "Feature", "properties": { "osm_id": 1643443255, "osm_type": "node", "type_service": "Banque commerciale", "name": "Central Bank", "operator": "N/R", "network": "N/R", "latitude": 18.8352659, "longitude": -72.1051577, "adm2_name": "Mirebalais", "adm2_pcode": "HT0621", "adm1_name": "Centre", "addr_city": "", "addr_street": "", "phone": "", "opening_hours": "", "website": "" }, "geometry": { "type": "Point", "coordinates": [ -72.1051577, 18.8352659 ] } },
{ "type": "Feature", "properties": { "osm_id": 1644293385, "osm_type": "node", "type_service": "Bureau de change", "name": "Reflexion bric a brac", "operator": "N/R", "network": "N/R", "latitude": 18.835001, "longitude": -72.1002411, "adm2_name": "Mirebalais", "adm2_pcode": "HT0621", "adm1_name": "Centre", "addr_city": "", "addr_street": "", "phone": "", "opening_hours": "", "website": "" }, "geometry": { "type": "Point", "coordinates": [ -72.1002411, 18.835001 ] } },
{ "type": "Feature", "properties": { "osm_id": 1644318308, "osm_type": "node", "type_service": "Maison de transfert", "name": "C.A.M Money Transfert", "operator": "N/R", "network": "N/R", "latitude": 18.2986964, "longitude": -73.6549798, "adm2_name": "Cavaillon", "adm2_pcode": "HT0733", "adm1_name": "Sud", "addr_city": "", "addr_street": "", "phone": "", "opening_hours": "", "website": "" }, "geometry": { "type": "Point", "coordinates": [ -73.6549798, 18.2986964 ] } },
{ "type": "Feature", "properties": { "osm_id": 1644339988, "osm_type": "node", "type_service": "Banque commerciale", "name": "Hector Bank", "operator": "N/R", "network": "N/R", "latitude": 18.3438186, "longitude": -73.7760489, "adm2_name": "Maniche", "adm2_pcode": "HT0715", "adm1_name": "Sud", "addr_city": "", "addr_street": "", "phone": "", "opening_hours": "", "website": "" }, "geometry": { "type": "Point", "coordinates": [ -73.7760489, 18.3438186 ] } },
{ "type": "Feature", "properties": { "osm_id": 1644339989, "osm_type": "node", "type_service": "Banque commerciale", "name": "La Differance Bank", "operator": "N/R", "network": "N/R", "latitude": 18.3437143, "longitude": -73.7763353, "adm2_name": "Maniche", "adm2_pcode": "HT0715", "adm1_name": "Sud", "addr_city": "", "addr_street": "", "phone": "", "opening_hours": "", "website": "" }, "geometry": { "type": "Point", "coordinates": [ -73.7763353, 18.3437143 ] } },
{ "type": "Feature", "properties": { "osm_id": 1644339990, "osm_type": "node", "type_service": "Banque commerciale", "name": "La Differance Bank", "operator": "N/R", "network": "N/R", "latitude": 18.3442148, "longitude": -73.7762692, "adm2_name": "Maniche", "adm2_pcode": "HT0715", "adm1_name": "Sud", "addr_city": "", "addr_street": "", "phone": "", "opening_hours": "", "website": "" }, "geometry": { "type": "Point", "coordinates": [ -73.7762692, 18.3442148 ] } },
{ "type": "Feature", "properties": { "osm_id": 1644339997, "osm_type": "node", "type_service": "Bureau de change", "name": "Uni Transfer", "operator": "N/R", "network": "N/R", "latitude": 18.3440406, "longitude": -73.7762299, "adm2_name": "Maniche", "adm2_pcode": "HT0715", "adm1_name": "Sud", "addr_city": "", "addr_street": "", "phone": "", "opening_hours": "", "website": "" }, "geometry": { "type": "Point", "coordinates": [ -73.7762299, 18.3440406 ] } },
{ "type": "Feature", "properties": { "osm_id": 1644347301, "osm_type": "node", "type_service": "Banque commerciale", "name": "Pas De Credit", "operator": "N/R", "network": "N/R", "latitude": 18.3415726, "longitude": -73.7768863, "adm2_name": "Maniche", "adm2_pcode": "HT0715", "adm1_name": "Sud", "addr_city": "", "addr_street": "", "phone": "", "opening_hours": "", "website": "" }, "geometry": { "type": "Point", "coordinates": [ -73.7768863, 18.3415726 ] } },
{ "type": "Feature", "properties": { "osm_id": 1644349524, "osm_type": "node", "type_service": "Banque commerciale", "name": "CODECREM", "operator": "N/R", "network": "N/R", "latitude": 18.8374937, "longitude": -72.1043688, "adm2_name": "Mirebalais", "adm2_pcode": "HT0621", "adm1_name": "Centre", "addr_city": "", "addr_street": "", "phone": "", "opening_hours": "", "website": "" }, "geometry": { "type": "Point", "coordinates": [ -72.1043688, 18.8374937 ] } },
{ "type": "Feature", "properties": { "osm_id": 1644376388, "osm_type": "node", "type_service": "Bureau de change", "name": "Mercidieu Ddily bric a brac", "operator": "N/R", "network": "N/R", "latitude": 18.8352803, "longitude": -72.100968, "adm2_name": "Mirebalais", "adm2_pcode": "HT0621", "adm1_name": "Centre", "addr_city": "", "addr_street": "", "phone": "", "opening_hours": "", "website": "" }, "geometry": { "type": "Point", "coordinates": [ -72.100968, 18.8352803 ] } },
{ "type": "Feature", "properties": { "osm_id": 1644551737, "osm_type": "node", "type_service": "Bureau de change", "name": "Eddy Sabotay", "operator": "N/R", "network": "N/R", "latitude": 18.834026, "longitude": -72.1007537, "adm2_name": "Mirebalais", "adm2_pcode": "HT0621", "adm1_name": "Centre", "addr_city": "", "addr_street": "", "phone": "", "opening_hours": "", "website": "" }, "geometry": { "type": "Point", "coordinates": [ -72.1007537, 18.834026 ] } },
{ "type": "Feature", "properties": { "osm_id": 1644719375, "osm_type": "node", "type_service": "IMF", "name": "Fonkoze", "operator": "N/R", "network": "N/R", "latitude": 18.8366027, "longitude": -72.1114571, "adm2_name": "Mirebalais", "adm2_pcode": "HT0621", "adm1_name": "Centre", "addr_city": "", "addr_street": "", "phone": "", "opening_hours": "", "website": "" }, "geometry": { "type": "Point", "coordinates": [ -72.1114571, 18.8366027 ] } },
{ "type": "Feature", "properties": { "osm_id": 1646011714, "osm_type": "node", "type_service": "Non classifié", "name": "Digicel Toucho Mobile", "operator": "Digicel", "network": "N/R", "latitude": 18.2989121, "longitude": -73.6541227, "adm2_name": "Cavaillon", "adm2_pcode": "HT0733", "adm1_name": "Sud", "addr_city": "", "addr_street": "", "phone": "", "opening_hours": "", "website": "" }, "geometry": { "type": "Point", "coordinates": [ -73.6541227, 18.2989121 ] } },
{ "type": "Feature", "properties": { "osm_id": 1646043363, "osm_type": "node", "type_service": "IMF", "name": "Caisse Populaire de Cavaillon", "operator": "N/R", "network": "N/R", "latitude": 18.3009253, "longitude": -73.6544858, "adm2_name": "Cavaillon", "adm2_pcode": "HT0733", "adm1_name": "Sud", "addr_city": "", "addr_street": "", "phone": "", "opening_hours": "", "website": "" }, "geometry": { "type": "Point", "coordinates": [ -73.6544858, 18.3009253 ] } },
{ "type": "Feature", "properties": { "osm_id": 1646132316, "osm_type": "node", "type_service": "IMF", "name": "Caisse Populaire De Gros Marin", "operator": "N/R", "network": "N/R", "latitude": 18.3607414, "longitude": -73.6281735, "adm2_name": "Cavaillon", "adm2_pcode": "HT0733", "adm1_name": "Sud", "addr_city": "", "addr_street": "", "phone": "", "opening_hours": "", "website": "" }, "geometry": { "type": "Point", "coordinates": [ -73.6281735, 18.3607414 ] } },
{ "type": "Feature", "properties": { "osm_id": 1650670722, "osm_type": "node", "type_service": "Bureau de change", "name": "N/R", "operator": "N/R", "network": "N/R", "latitude": 18.1913121, "longitude": -73.7530443, "adm2_name": "Les Cayes", "adm2_pcode": "HT0711", "adm1_name": "Sud", "addr_city": "", "addr_street": "", "phone": "", "opening_hours": "", "website": "" }, "geometry": { "type": "Point", "coordinates": [ -73.7530443, 18.1913121 ] } },
{ "type": "Feature", "properties": { "osm_id": 1650896113, "osm_type": "node", "type_service": "Maison de transfert", "name": "N/R", "operator": "Cam transfert", "network": "N/R", "latitude": 19.1180429, "longitude": -72.6971589, "adm2_name": "Saint-Marc", "adm2_pcode": "HT0531", "adm1_name": "Artibonite", "addr_city": "", "addr_street": "Blockauss3", "phone": "", "opening_hours": "", "website": "" }, "geometry": { "type": "Point", "coordinates": [ -72.6971589, 19.1180429 ] } },
{ "type": "Feature", "properties": { "osm_id": 1651629317, "osm_type": "node", "type_service": "Maison de transfert", "name": "Sam Complexe, unitransfert", "operator": "N/R", "network": "N/R", "latitude": 19.1054537, "longitude": -72.7013775, "adm2_name": "Saint-Marc", "adm2_pcode": "HT0531", "adm1_name": "Artibonite", "addr_city": "", "addr_street": "Rue Christophe", "phone": "", "opening_hours": "Mo-Sa 07:00-17:00", "website": "" }, "geometry": { "type": "Point", "coordinates": [ -72.7013775, 19.1054537 ] } },
{ "type": "Feature", "properties": { "osm_id": 1651647051, "osm_type": "node", "type_service": "Maison de transfert", "name": "Sam Complexe, unitransfert", "operator": "N/R", "network": "N/R", "latitude": 19.1049671, "longitude": -72.70327, "adm2_name": "Saint-Marc", "adm2_pcode": "HT0531", "adm1_name": "Artibonite", "addr_city": "", "addr_street": "Rue Christophe", "phone": "", "opening_hours": "", "website": "" }, "geometry": { "type": "Point", "coordinates": [ -72.70327, 19.1049671 ] } },
{ "type": "Feature", "properties": { "osm_id": 1652995575, "osm_type": "node", "type_service": "Bureau de change", "name": "Explosion", "operator": "N/R", "network": "N/R", "latitude": 19.1206223, "longitude": -72.6986094, "adm2_name": "Saint-Marc", "adm2_pcode": "HT0531", "adm1_name": "Artibonite", "addr_city": "", "addr_street": "Route Nationale #1", "phone": "", "opening_hours": "", "website": "" }, "geometry": { "type": "Point", "coordinates": [ -72.6986094, 19.1206223 ] } },
{ "type": "Feature", "properties": { "osm_id": 1653277360, "osm_type": "node", "type_service": "Maison de transfert", "name": "Western Union / Sogexepress", "operator": "N/R", "network": "N/R", "latitude": 18.9577595, "longitude": -72.7159298, "adm2_name": "Saint-Marc", "adm2_pcode": "HT0531", "adm1_name": "Artibonite", "addr_city": "", "addr_street": "", "phone": "", "opening_hours": "", "website": "" }, "geometry": { "type": "Point", "coordinates": [ -72.7159298, 18.9577595 ] } },
{ "type": "Feature", "properties": { "osm_id": 1653288298, "osm_type": "node", "type_service": "Banque commerciale", "name": "Micro Credit Nationale", "operator": "N/R", "network": "N/R", "latitude": 19.1114712, "longitude": -72.7007133, "adm2_name": "Saint-Marc", "adm2_pcode": "HT0531", "adm1_name": "Artibonite", "addr_city": "", "addr_street": "Rue Louverture", "phone": "", "opening_hours": "", "website": "" }, "geometry": { "type": "Point", "coordinates": [ -72.7007133, 19.1114712 ] } },
{ "type": "Feature", "properties": { "osm_id": 1653347889, "osm_type": "node", "type_service": "Guichet ATM", "name": "N/R", "operator": "C A M Transfer", "network": "N/R", "latitude": 19.1118681, "longitude": -72.7005773, "adm2_name": "Saint-Marc", "adm2_pcode": "HT0531", "adm1_name": "Artibonite", "addr_city": "", "addr_street": "Rue Louverture", "phone": "", "opening_hours": "", "website": "" }, "geometry": { "type": "Point", "coordinates": [ -72.7005773, 19.1118681 ] } },
{ "type": "Feature", "properties": { "osm_id": 1654621555, "osm_type": "node", "type_service": "Banque commerciale", "name": "Socolavim", "operator": "N/R", "network": "N/R", "latitude": 19.1113466, "longitude": -72.699926, "adm2_name": "Saint-Marc", "adm2_pcode": "HT0531", "adm1_name": "Artibonite", "addr_city": "", "addr_street": "Rue Bonet Prolonger", "phone": "", "opening_hours": "", "website": "" }, "geometry": { "type": "Point", "coordinates": [ -72.699926, 19.1113466 ] } },
{ "type": "Feature", "properties": { "osm_id": 1656300934, "osm_type": "node", "type_service": "Bureau de change", "name": "C.A.M", "operator": "N/R", "network": "N/R", "latitude": 18.8155804, "longitude": -72.2010033, "adm2_name": "Saut d'Eau", "adm2_pcode": "HT0622", "adm1_name": "Centre", "addr_city": "", "addr_street": "", "phone": "", "opening_hours": "", "website": "" }, "geometry": { "type": "Point", "coordinates": [ -72.2010033, 18.8155804 ] } },
{ "type": "Feature", "properties": { "osm_id": 1656300943, "osm_type": "node", "type_service": "Banque commerciale", "name": "Soge Express", "operator": "N/R", "network": "N/R", "latitude": 18.8157654, "longitude": -72.2009347, "adm2_name": "Saut d'Eau", "adm2_pcode": "HT0622", "adm1_name": "Centre", "addr_city": "", "addr_street": "", "phone": "", "opening_hours": "", "website": "" }, "geometry": { "type": "Point", "coordinates": [ -72.2009347, 18.8157654 ] } },
{ "type": "Feature", "properties": { "osm_id": 1660726374, "osm_type": "node", "type_service": "Banque commerciale", "name": "CAPOSOV", "operator": "N/R", "network": "N/R", "latitude": 18.9116391, "longitude": -72.3132479, "adm2_name": "La Chapelle", "adm2_pcode": "HT0533", "adm1_name": "Artibonite", "addr_city": "", "addr_street": "", "phone": "", "opening_hours": "", "website": "" }, "geometry": { "type": "Point", "coordinates": [ -72.3132479, 18.9116391 ] } },
{ "type": "Feature", "properties": { "osm_id": 1661335998, "osm_type": "node", "type_service": "Bureau de change", "name": "Uni-transfer", "operator": "N/R", "network": "N/R", "latitude": 18.2632163, "longitude": -73.5450156, "adm2_name": "Saint Louis du Sud", "adm2_pcode": "HT0732", "adm1_name": "Sud", "addr_city": "", "addr_street": "", "phone": "", "opening_hours": "", "website": "" }, "geometry": { "type": "Point", "coordinates": [ -73.5450156, 18.2632163 ] } },
{ "type": "Feature", "properties": { "osm_id": 1662459153, "osm_type": "node", "type_service": "Non classifié", "name": "NATCOM", "operator": "Natcom", "network": "N/R", "latitude": 19.0810304, "longitude": -72.6312814, "adm2_name": "Saint-Marc", "adm2_pcode": "HT0531", "adm1_name": "Artibonite", "addr_city": "", "addr_street": "Route Gilbert 4eme Section", "phone": "", "opening_hours": "", "website": "" }, "geometry": { "type": "Point", "coordinates": [ -72.6312814, 19.0810304 ] } },
{ "type": "Feature", "properties": { "osm_id": 1667455445, "osm_type": "node", "type_service": "IMF", "name": "Fonkoze", "operator": "N/R", "network": "N/R", "latitude": 18.9193319, "longitude": -72.1400724, "adm2_name": "Boucan Carre", "adm2_pcode": "HT0623", "adm1_name": "Centre", "addr_city": "", "addr_street": "", "phone": "", "opening_hours": "", "website": "" }, "geometry": { "type": "Point", "coordinates": [ -72.1400724, 18.9193319 ] } },
{ "type": "Feature", "properties": { "osm_id": 1667562317, "osm_type": "node", "type_service": "Bureau de change", "name": "Yv-o-lo Sabotay", "operator": "N/R", "network": "N/R", "latitude": 18.7705842, "longitude": -72.5133058, "adm2_name": "Arcahaie", "adm2_pcode": "HT0141", "adm1_name": "Ouest", "addr_city": "", "addr_street": "", "phone": "", "opening_hours": "", "website": "" }, "geometry": { "type": "Point", "coordinates": [ -72.5133058, 18.7705842 ] } },
{ "type": "Feature", "properties": { "osm_id": 1671992084, "osm_type": "node", "type_service": "Banque commerciale", "name": "Kes Popile Graf", "operator": "N/R", "network": "N/R", "latitude": 18.7730658, "longitude": -72.516269, "adm2_name": "Arcahaie", "adm2_pcode": "HT0141", "adm1_name": "Ouest", "addr_city": "", "addr_street": "", "phone": "", "opening_hours": "", "website": "" }, "geometry": { "type": "Point", "coordinates": [ -72.516269, 18.7730658 ] } },
{ "type": "Feature", "properties": { "osm_id": 1672318955, "osm_type": "node", "type_service": "Bureau de change", "name": "Robenson Bureau de change", "operator": "N/R", "network": "N/R", "latitude": 19.1106731, "longitude": -72.6995358, "adm2_name": "Saint-Marc", "adm2_pcode": "HT0531", "adm1_name": "Artibonite", "addr_city": "", "addr_street": "Rue savannah", "phone": "", "opening_hours": "", "website": "" }, "geometry": { "type": "Point", "coordinates": [ -72.6995358, 19.1106731 ] } },
{ "type": "Feature", "properties": { "osm_id": 1672500614, "osm_type": "node", "type_service": "Maison de transfert", "name": "Sogexpress", "operator": "N/R", "network": "N/R", "latitude": 18.2634369, "longitude": -73.5431838, "adm2_name": "Saint Louis du Sud", "adm2_pcode": "HT0732", "adm1_name": "Sud", "addr_city": "", "addr_street": "", "phone": "", "opening_hours": "", "website": "" }, "geometry": { "type": "Point", "coordinates": [ -73.5431838, 18.2634369 ] } },
{ "type": "Feature", "properties": { "osm_id": 1672576245, "osm_type": "node", "type_service": "Bureau de change", "name": "N/R", "operator": "N/R", "network": "N/R", "latitude": 18.1976144, "longitude": -73.752344, "adm2_name": "Les Cayes", "adm2_pcode": "HT0711", "adm1_name": "Sud", "addr_city": "", "addr_street": "", "phone": "", "opening_hours": "", "website": "" }, "geometry": { "type": "Point", "coordinates": [ -73.752344, 18.1976144 ] } },
{ "type": "Feature", "properties": { "osm_id": 1673503245, "osm_type": "node", "type_service": "Banque commerciale", "name": "Banque Nationale", "operator": "N/R", "network": "N/R", "latitude": 18.1910802, "longitude": -73.7505492, "adm2_name": "Les Cayes", "adm2_pcode": "HT0711", "adm1_name": "Sud", "addr_city": "", "addr_street": "", "phone": "", "opening_hours": "", "website": "" }, "geometry": { "type": "Point", "coordinates": [ -73.7505492, 18.1910802 ] } },
{ "type": "Feature", "properties": { "osm_id": 1673815536, "osm_type": "node", "type_service": "Bureau de change", "name": "C.A.M", "operator": "N/R", "network": "N/R", "latitude": 18.1939334, "longitude": -73.7529712, "adm2_name": "Les Cayes", "adm2_pcode": "HT0711", "adm1_name": "Sud", "addr_city": "", "addr_street": "", "phone": "", "opening_hours": "", "website": "" }, "geometry": { "type": "Point", "coordinates": [ -73.7529712, 18.1939334 ] } },
{ "type": "Feature", "properties": { "osm_id": 1674626268, "osm_type": "node", "type_service": "Bureau de change", "name": "Hazael Bureau de change", "operator": "N/R", "network": "N/R", "latitude": 19.1088331, "longitude": -72.699899, "adm2_name": "Saint-Marc", "adm2_pcode": "HT0531", "adm1_name": "Artibonite", "addr_city": "", "addr_street": "Rue Savannah", "phone": "", "opening_hours": "", "website": "" }, "geometry": { "type": "Point", "coordinates": [ -72.699899, 19.1088331 ] } },
{ "type": "Feature", "properties": { "osm_id": 1674684947, "osm_type": "node", "type_service": "Bureau de change", "name": "Alix Mio", "operator": "N/R", "network": "N/R", "latitude": 19.1109769, "longitude": -72.7007586, "adm2_name": "Saint-Marc", "adm2_pcode": "HT0531", "adm1_name": "Artibonite", "addr_city": "", "addr_street": "Rue Louverture", "phone": "", "opening_hours": "", "website": "" }, "geometry": { "type": "Point", "coordinates": [ -72.7007586, 19.1109769 ] } },
{ "type": "Feature", "properties": { "osm_id": 1674684982, "osm_type": "node", "type_service": "Banque commerciale", "name": "Scorpio Crédit", "operator": "N/R", "network": "N/R", "latitude": 19.1109549, "longitude": -72.7007573, "adm2_name": "Saint-Marc", "adm2_pcode": "HT0531", "adm1_name": "Artibonite", "addr_city": "", "addr_street": "Rue Louverture", "phone": "", "opening_hours": "", "website": "" }, "geometry": { "type": "Point", "coordinates": [ -72.7007573, 19.1109549 ] } },
{ "type": "Feature", "properties": { "osm_id": 1675107429, "osm_type": "node", "type_service": "Banque commerciale", "name": "Money Gram", "operator": "N/R", "network": "N/R", "latitude": 19.1099917, "longitude": -72.7013086, "adm2_name": "Saint-Marc", "adm2_pcode": "HT0531", "adm1_name": "Artibonite", "addr_city": "", "addr_street": "Rte Nationale", "phone": "", "opening_hours": "", "website": "" }, "geometry": { "type": "Point", "coordinates": [ -72.7013086, 19.1099917 ] } },
{ "type": "Feature", "properties": { "osm_id": 1675107524, "osm_type": "node", "type_service": "Banque commerciale", "name": "Surpris Laurent BNC", "operator": "N/R", "network": "N/R", "latitude": 19.1099538, "longitude": -72.7010117, "adm2_name": "Saint-Marc", "adm2_pcode": "HT0531", "adm1_name": "Artibonite", "addr_city": "", "addr_street": "Rte Nationale", "phone": "", "opening_hours": "", "website": "" }, "geometry": { "type": "Point", "coordinates": [ -72.7010117, 19.1099538 ] } },
{ "type": "Feature", "properties": { "osm_id": 1675107541, "osm_type": "node", "type_service": "Maison de transfert", "name": "Western Union", "operator": "N/R", "network": "N/R", "latitude": 19.1100868, "longitude": -72.7012966, "adm2_name": "Saint-Marc", "adm2_pcode": "HT0531", "adm1_name": "Artibonite", "addr_city": "", "addr_street": "Rte Nationale", "phone": "", "opening_hours": "", "website": "" }, "geometry": { "type": "Point", "coordinates": [ -72.7012966, 19.1100868 ] } },
{ "type": "Feature", "properties": { "osm_id": 1676922404, "osm_type": "node", "type_service": "Banque commerciale", "name": "Unibank", "operator": "N/R", "network": "N/R", "latitude": 19.1099736, "longitude": -72.7003356, "adm2_name": "Saint-Marc", "adm2_pcode": "HT0531", "adm1_name": "Artibonite", "addr_city": "", "addr_street": "Rue Supris Laurent", "phone": "", "opening_hours": "", "website": "" }, "geometry": { "type": "Point", "coordinates": [ -72.7003356, 19.1099736 ] } },
{ "type": "Feature", "properties": { "osm_id": 1676953412, "osm_type": "node", "type_service": "Banque commerciale", "name": "Les Frères Dantès", "operator": "N/R", "network": "N/R", "latitude": 19.1093393, "longitude": -72.7002268, "adm2_name": "Saint-Marc", "adm2_pcode": "HT0531", "adm1_name": "Artibonite", "addr_city": "", "addr_street": "Rue Père Primet", "phone": "", "opening_hours": "", "website": "" }, "geometry": { "type": "Point", "coordinates": [ -72.7002268, 19.1093393 ] } },
{ "type": "Feature", "properties": { "osm_id": 1681666076, "osm_type": "node", "type_service": "Maison de transfert", "name": "Sogexpress", "operator": "N/R", "network": "N/R", "latitude": 18.3094126, "longitude": -73.3047327, "adm2_name": "Aquin", "adm2_pcode": "HT0731", "adm1_name": "Sud", "addr_city": "", "addr_street": "", "phone": "", "opening_hours": "", "website": "" }, "geometry": { "type": "Point", "coordinates": [ -73.3047327, 18.3094126 ] } },
{ "type": "Feature", "properties": { "osm_id": 1683647667, "osm_type": "node", "type_service": "Banque commerciale", "name": "Sogesol Banque", "operator": "N/R", "network": "N/R", "latitude": 19.1086677, "longitude": -72.7013019, "adm2_name": "Saint-Marc", "adm2_pcode": "HT0531", "adm1_name": "Artibonite", "addr_city": "", "addr_street": "Rue Armand Thoby", "phone": "", "opening_hours": "", "website": "" }, "geometry": { "type": "Point", "coordinates": [ -72.7013019, 19.1086677 ] } },
{ "type": "Feature", "properties": { "osm_id": 1684943512, "osm_type": "node", "type_service": "Banque commerciale", "name": "Socolavim", "operator": "N/R", "network": "N/R", "latitude": 19.1498363, "longitude": -72.6152146, "adm2_name": "Saint-Marc", "adm2_pcode": "HT0531", "adm1_name": "Artibonite", "addr_city": "", "addr_street": "La Tour", "phone": "", "opening_hours": "", "website": "" }, "geometry": { "type": "Point", "coordinates": [ -72.6152146, 19.1498363 ] } },
{ "type": "Feature", "properties": { "osm_id": 1685303335, "osm_type": "node", "type_service": "Non classifié", "name": "N/R", "operator": "Digicel", "network": "N/R", "latitude": 19.0571481, "longitude": -72.6737507, "adm2_name": "Saint-Marc", "adm2_pcode": "HT0531", "adm1_name": "Artibonite", "addr_city": "", "addr_street": "", "phone": "", "opening_hours": "6:00", "website": "" }, "geometry": { "type": "Point", "coordinates": [ -72.6737507, 19.0571481 ] } },
{ "type": "Feature", "properties": { "osm_id": 1687320881, "osm_type": "node", "type_service": "IMF", "name": "Fonkoze sevis finansye", "operator": "Cooperative", "network": "N/R", "latitude": 19.1500319, "longitude": -72.6142479, "adm2_name": "Saint-Marc", "adm2_pcode": "HT0531", "adm1_name": "Artibonite", "addr_city": "", "addr_street": "Route Pont-Sonde- Mirbalais", "phone": "", "opening_hours": "", "website": "" }, "geometry": { "type": "Point", "coordinates": [ -72.6142479, 19.1500319 ] } },
{ "type": "Feature", "properties": { "osm_id": 1692228937, "osm_type": "node", "type_service": "Banque commerciale", "name": "Banque Nationale de Crédit", "operator": "BNC", "network": "N/R", "latitude": 18.2786284, "longitude": -73.3948992, "adm2_name": "Aquin", "adm2_pcode": "HT0731", "adm1_name": "Sud", "addr_city": "", "addr_street": "", "phone": "", "opening_hours": "", "website": "" }, "geometry": { "type": "Point", "coordinates": [ -73.3948992, 18.2786284 ] } },
{ "type": "Feature", "properties": { "osm_id": 1692254360, "osm_type": "node", "type_service": "Banque commerciale", "name": "Tet Fret Bank", "operator": "N/R", "network": "N/R", "latitude": 18.2832162, "longitude": -73.3921512, "adm2_name": "Aquin", "adm2_pcode": "HT0731", "adm1_name": "Sud", "addr_city": "", "addr_street": "", "phone": "", "opening_hours": "", "website": "" }, "geometry": { "type": "Point", "coordinates": [ -73.3921512, 18.2832162 ] } },
{ "type": "Feature", "properties": { "osm_id": 1692254361, "osm_type": "node", "type_service": "Banque commerciale", "name": "Uni Transfer", "operator": "N/R", "network": "N/R", "latitude": 18.2831922, "longitude": -73.3946978, "adm2_name": "Aquin", "adm2_pcode": "HT0731", "adm1_name": "Sud", "addr_city": "", "addr_street": "", "phone": "", "opening_hours": "", "website": "" }, "geometry": { "type": "Point", "coordinates": [ -73.3946978, 18.2831922 ] } },
{ "type": "Feature", "properties": { "osm_id": 1692254362, "osm_type": "node", "type_service": "Maison de transfert", "name": "Western Union", "operator": "N/R", "network": "N/R", "latitude": 18.2832254, "longitude": -73.3920178, "adm2_name": "Aquin", "adm2_pcode": "HT0731", "adm1_name": "Sud", "addr_city": "", "addr_street": "", "phone": "", "opening_hours": "", "website": "" }, "geometry": { "type": "Point", "coordinates": [ -73.3920178, 18.2832254 ] } },
{ "type": "Feature", "properties": { "osm_id": 1697166890, "osm_type": "node", "type_service": "Non classifié", "name": "N/R", "operator": "Digicel", "network": "N/R", "latitude": 18.0994791, "longitude": -73.7009162, "adm2_name": "Ile a Vache", "adm2_pcode": "HT0716", "adm1_name": "Sud", "addr_city": "", "addr_street": "", "phone": "", "opening_hours": "", "website": "" }, "geometry": { "type": "Point", "coordinates": [ -73.7009162, 18.0994791 ] } },
{ "type": "Feature", "properties": { "osm_id": 1697166892, "osm_type": "node", "type_service": "Non classifié", "name": "N/R", "operator": "Natcom", "network": "N/R", "latitude": 18.0996055, "longitude": -73.7012094, "adm2_name": "Ile a Vache", "adm2_pcode": "HT0716", "adm1_name": "Sud", "addr_city": "", "addr_street": "", "phone": "", "opening_hours": "", "website": "" }, "geometry": { "type": "Point", "coordinates": [ -73.7012094, 18.0996055 ] } },
{ "type": "Feature", "properties": { "osm_id": 1697907321, "osm_type": "node", "type_service": "Guichet ATM", "name": "N/R", "operator": "Brica Brac", "network": "N/R", "latitude": 18.9552825, "longitude": -72.7003728, "adm2_name": "Arcahaie", "adm2_pcode": "HT0141", "adm1_name": "Ouest", "addr_city": "", "addr_street": "Montrouis", "phone": "", "opening_hours": "", "website": "" }, "geometry": { "type": "Point", "coordinates": [ -72.7003728, 18.9552825 ] } },
{ "type": "Feature", "properties": { "osm_id": 1697921783, "osm_type": "node", "type_service": "Guichet ATM", "name": "N/R", "operator": "N/R", "network": "N/R", "latitude": 18.9548358, "longitude": -72.701147, "adm2_name": "Arcahaie", "adm2_pcode": "HT0141", "adm1_name": "Ouest", "addr_city": "", "addr_street": "Montrouis", "phone": "", "opening_hours": "", "website": "" }, "geometry": { "type": "Point", "coordinates": [ -72.701147, 18.9548358 ] } },
{ "type": "Feature", "properties": { "osm_id": 1697963797, "osm_type": "node", "type_service": "Banque commerciale", "name": "Fonk Koze", "operator": "N/R", "network": "N/R", "latitude": 18.2751402, "longitude": -73.1252144, "adm2_name": "Aquin", "adm2_pcode": "HT0731", "adm1_name": "Sud", "addr_city": "", "addr_street": "", "phone": "", "opening_hours": "", "website": "" }, "geometry": { "type": "Point", "coordinates": [ -73.1252144, 18.2751402 ] } },
{ "type": "Feature", "properties": { "osm_id": 1698284504, "osm_type": "node", "type_service": "Bureau de change", "name": "Wertern Union", "operator": "N/R", "network": "N/R", "latitude": 18.9492266, "longitude": -72.7044952, "adm2_name": "Arcahaie", "adm2_pcode": "HT0141", "adm1_name": "Ouest", "addr_city": "", "addr_street": "Route  nationale # 1 Mont-Rouis", "phone": "", "opening_hours": "", "website": "" }, "geometry": { "type": "Point", "coordinates": [ -72.7044952, 18.9492266 ] } },
{ "type": "Feature", "properties": { "osm_id": 1698292169, "osm_type": "node", "type_service": "Guichet ATM", "name": "N/R", "operator": "N/R", "network": "N/R", "latitude": 18.9499218, "longitude": -72.7035109, "adm2_name": "Arcahaie", "adm2_pcode": "HT0141", "adm1_name": "Ouest", "addr_city": "", "addr_street": "Route cacouyo", "phone": "", "opening_hours": "", "website": "" }, "geometry": { "type": "Point", "coordinates": [ -72.7035109, 18.9499218 ] } },
{ "type": "Feature", "properties": { "osm_id": 1708720599, "osm_type": "node", "type_service": "Banque commerciale", "name": "Central Charlito Bank", "operator": "N/R", "network": "N/R", "latitude": 18.0858436, "longitude": -73.6550629, "adm2_name": "Ile a Vache", "adm2_pcode": "HT0716", "adm1_name": "Sud", "addr_city": "", "addr_street": "", "phone": "", "opening_hours": "", "website": "" }, "geometry": { "type": "Point", "coordinates": [ -73.6550629, 18.0858436 ] } },
{ "type": "Feature", "properties": { "osm_id": 1708720634, "osm_type": "node", "type_service": "Banque commerciale", "name": "Central Junot Bank", "operator": "N/R", "network": "N/R", "latitude": 18.085585, "longitude": -73.6548451, "adm2_name": "Ile a Vache", "adm2_pcode": "HT0716", "adm1_name": "Sud", "addr_city": "", "addr_street": "", "phone": "", "opening_hours": "", "website": "" }, "geometry": { "type": "Point", "coordinates": [ -73.6548451, 18.085585 ] } },
{ "type": "Feature", "properties": { "osm_id": 1719746903, "osm_type": "node", "type_service": "Banque commerciale", "name": "BNC", "operator": "N/R", "network": "N/R", "latitude": 18.7365187, "longitude": -72.4167801, "adm2_name": "Cabaret", "adm2_pcode": "HT0142", "adm1_name": "Ouest", "addr_city": "", "addr_street": "Bas Duclos", "phone": "", "opening_hours": "", "website": "" }, "geometry": { "type": "Point", "coordinates": [ -72.4167801, 18.7365187 ] } },
{ "type": "Feature", "properties": { "osm_id": 1720081252, "osm_type": "node", "type_service": "Bureau de change", "name": "Gérard", "operator": "N/R", "network": "N/R", "latitude": 18.517048, "longitude": -72.2981656, "adm2_name": "Petion-Ville", "adm2_pcode": "HT0114", "adm1_name": "Ouest", "addr_city": "", "addr_street": "", "phone": "", "opening_hours": "", "website": "" }, "geometry": { "type": "Point", "coordinates": [ -72.2981656, 18.517048 ] } },
{ "type": "Feature", "properties": { "osm_id": 1757796798, "osm_type": "node", "type_service": "Non classifié", "name": "Digicel", "operator": "Digicel", "network": "N/R", "latitude": 18.5120712, "longitude": -72.2898697, "adm2_name": "Petion-Ville", "adm2_pcode": "HT0114", "adm1_name": "Ouest", "addr_city": "", "addr_street": "Rue Clerveaux", "phone": "", "opening_hours": "", "website": "" }, "geometry": { "type": "Point", "coordinates": [ -72.2898697, 18.5120712 ] } },
{ "type": "Feature", "properties": { "osm_id": 1760089967, "osm_type": "node", "type_service": "Banque commerciale", "name": "Capital Bank", "operator": "Capital Bank", "network": "N/R", "latitude": 18.5117457, "longitude": -72.2832923, "adm2_name": "Petion-Ville", "adm2_pcode": "HT0114", "adm1_name": "Ouest", "addr_city": "", "addr_street": "Rue Metellus", "phone": "", "opening_hours": "", "website": "" }, "geometry": { "type": "Point", "coordinates": [ -72.2832923, 18.5117457 ] } },
{ "type": "Feature", "properties": { "osm_id": 1786568777, "osm_type": "node", "type_service": "Banque commerciale", "name": "Soge Express", "operator": "N/R", "network": "N/R", "latitude": 18.5323269, "longitude": -72.3154456, "adm2_name": "Port-au-Prince", "adm2_pcode": "HT0111", "adm1_name": "Ouest", "addr_city": "", "addr_street": "", "phone": "", "opening_hours": "", "website": "" }, "geometry": { "type": "Point", "coordinates": [ -72.3154456, 18.5323269 ] } },
{ "type": "Feature", "properties": { "osm_id": 1786574195, "osm_type": "node", "type_service": "Bureau de change", "name": "Uni Transfer", "operator": "N/R", "network": "N/R", "latitude": 18.5320534, "longitude": -72.3155525, "adm2_name": "Port-au-Prince", "adm2_pcode": "HT0111", "adm1_name": "Ouest", "addr_city": "", "addr_street": "", "phone": "", "opening_hours": "", "website": "" }, "geometry": { "type": "Point", "coordinates": [ -72.3155525, 18.5320534 ] } },
{ "type": "Feature", "properties": { "osm_id": 1793945580, "osm_type": "node", "type_service": "Banque commerciale", "name": "N/R", "operator": "Sogebank", "network": "N/R", "latitude": 18.5639933, "longitude": -72.2493101, "adm2_name": "Tabarre", "adm2_pcode": "HT0118", "adm1_name": "Ouest", "addr_city": "", "addr_street": "", "phone": "", "opening_hours": "", "website": "" }, "geometry": { "type": "Point", "coordinates": [ -72.2493101, 18.5639933 ] } },
{ "type": "Feature", "properties": { "osm_id": 1888663692, "osm_type": "node", "type_service": "Banque commerciale", "name": "Capital Bank", "operator": "privee", "network": "N/R", "latitude": 19.1455452, "longitude": -72.0065104, "adm2_name": "Hinche", "adm2_pcode": "HT0611", "adm1_name": "Centre", "addr_city": "", "addr_street": "", "phone": "", "opening_hours": "Tu-Su 08:00-15:00;Sa 08:00-12:00", "website": "" }, "geometry": { "type": "Point", "coordinates": [ -72.0065104, 19.1455452 ] } },
{ "type": "Feature", "properties": { "osm_id": 1890107708, "osm_type": "node", "type_service": "Banque commerciale", "name": "SogeBank-SogeCarte", "operator": "Sogebank", "network": "N/R", "latitude": 18.5154887, "longitude": -72.2886125, "adm2_name": "Petion-Ville", "adm2_pcode": "HT0114", "adm1_name": "Ouest", "addr_city": "", "addr_street": "", "phone": "", "opening_hours": "", "website": "" }, "geometry": { "type": "Point", "coordinates": [ -72.2886125, 18.5154887 ] } },
{ "type": "Feature", "properties": { "osm_id": 1890139787, "osm_type": "node", "type_service": "Banque commerciale", "name": "BUH", "operator": "N/R", "network": "N/R", "latitude": 18.5139439, "longitude": -72.2894401, "adm2_name": "Petion-Ville", "adm2_pcode": "HT0114", "adm1_name": "Ouest", "addr_city": "", "addr_street": "", "phone": "", "opening_hours": "9:00-16:00", "website": "" }, "geometry": { "type": "Point", "coordinates": [ -72.2894401, 18.5139439 ] } },